{
 "database": "Nova Scotia",
 "source_file": "nova_scotia_master_seo_database_OPTIMIZED.xlsx",
 "total_locations": 807,
 "publishable": 249,
 "scoring": "unified network formula (docs/seo/master-databases/01 §1)",
 "batch_size": 20,
 "locations": [
  {
   "id": "NS-0001",
   "name": "Halifax",
   "slug": "halifax",
   "type": "City",
   "parent_municipality": "",
   "parent_region": "Halifax Metro",
   "lat": 44.6488,
   "lng": -63.5752,
   "postal": "B3H",
   "population_2021": 439819,
   "unified_score": 77.3,
   "verification": "Census_Verified",
   "publishable": true,
   "rank": 1,
   "batch": 1
  },
  {
   "id": "NS-0015",
   "name": "Cape Breton",
   "slug": "cape-breton",
   "type": "Regional Municipality",
   "parent_municipality": "",
   "parent_region": "Cape Breton",
   "lat": 46.1368,
   "lng": -60.1942,
   "postal": "B1Y",
   "population_2021": 94285,
   "unified_score": 73.2,
   "verification": "Census_Verified",
   "publishable": true,
   "rank": 2,
   "batch": 1
  },
  {
   "id": "NS-0002",
   "name": "Sydney",
   "slug": "sydney",
   "type": "City",
   "parent_municipality": "",
   "parent_region": "Cape Breton",
   "lat": 46.1368,
   "lng": -60.1942,
   "postal": "B1P",
   "population_2021": 24115,
   "unified_score": 70.4,
   "verification": "Census_Verified",
   "publishable": true,
   "rank": 3,
   "batch": 1
  },
  {
   "id": "NS-0025",
   "name": "Dartmouth",
   "slug": "dartmouth",
   "type": "Urban Community",
   "parent_municipality": "Halifax",
   "parent_region": "Halifax Metro",
   "lat": 44.6717,
   "lng": -63.56,
   "postal": "B3H",
   "population_2021": 72139,
   "unified_score": 67.5,
   "verification": "Census_Verified",
   "publishable": true,
   "rank": 4,
   "batch": 1
  },
  {
   "id": "NS-0010",
   "name": "West Hants",
   "slug": "west-hants",
   "type": "Regional Municipality",
   "parent_municipality": "",
   "parent_region": "Annapolis Valley",
   "lat": 44.95,
   "lng": -64.13,
   "postal": "B4N",
   "population_2021": 19509,
   "unified_score": 67.3,
   "verification": "Census_Verified",
   "publishable": true,
   "rank": 5,
   "batch": 1
  },
  {
   "id": "NS-0114",
   "name": "East Hants",
   "slug": "east-hants",
   "type": "District Municipality",
   "parent_municipality": "",
   "parent_region": "Central Nova Scotia",
   "lat": 44.98,
   "lng": -63.65,
   "postal": "B2N",
   "population_2021": 24539,
   "unified_score": 66.3,
   "verification": "Census_Verified",
   "publishable": true,
   "rank": 6,
   "batch": 1
  },
  {
   "id": "NS-0102",
   "name": "Kings County",
   "slug": "kings-county",
   "type": "County Municipality",
   "parent_municipality": "",
   "parent_region": "Annapolis Valley",
   "lat": 45.05,
   "lng": -64.5,
   "postal": "B4N",
   "population_2021": 47918,
   "unified_score": 66.2,
   "verification": "Census_Verified",
   "publishable": true,
   "rank": 7,
   "batch": 1
  },
  {
   "id": "NS-0108",
   "name": "Colchester County",
   "slug": "colchester-county",
   "type": "County Municipality",
   "parent_municipality": "",
   "parent_region": "Central Nova Scotia",
   "lat": 45.35,
   "lng": -63.3,
   "postal": "B2N",
   "population_2021": 38024,
   "unified_score": 65.9,
   "verification": "Census_Verified",
   "publishable": true,
   "rank": 8,
   "batch": 1
  },
  {
   "id": "NS-0091",
   "name": "Bedford",
   "slug": "bedford",
   "type": "Urban Community",
   "parent_municipality": "Halifax",
   "parent_region": "Halifax Metro",
   "lat": 44.7333,
   "lng": -63.6667,
   "postal": "B4B",
   "population_2021": 30000,
   "unified_score": 65.5,
   "verification": "Census_Verified",
   "publishable": true,
   "rank": 9,
   "batch": 1
  },
  {
   "id": "NS-0139",
   "name": "Lunenburg District",
   "slug": "lunenburg-district",
   "type": "District Municipality",
   "parent_municipality": "",
   "parent_region": "South Shore",
   "lat": 44.4,
   "lng": -64.4,
   "postal": "B4V",
   "population_2021": 24863,
   "unified_score": 65.3,
   "verification": "Census_Verified",
   "publishable": true,
   "rank": 10,
   "batch": 1
  },
  {
   "id": "NS-0097",
   "name": "Lower Sackville",
   "slug": "lower-sackville",
   "type": "Urban Community",
   "parent_municipality": "Halifax",
   "parent_region": "Halifax Metro",
   "lat": 44.76,
   "lng": -63.68,
   "postal": "B4B",
   "population_2021": 28000,
   "unified_score": 65.2,
   "verification": "Census_Verified",
   "publishable": true,
   "rank": 11,
   "batch": 1
  },
  {
   "id": "NS-0103",
   "name": "Cole Harbour",
   "slug": "cole-harbour",
   "type": "Urban Community",
   "parent_municipality": "Halifax",
   "parent_region": "Halifax Metro",
   "lat": 44.67,
   "lng": -63.47,
   "postal": "B3H",
   "population_2021": 25000,
   "unified_score": 65.2,
   "verification": "Census_Verified",
   "publishable": true,
   "rank": 12,
   "batch": 1
  },
  {
   "id": "NS-0003",
   "name": "Glace Bay",
   "slug": "glace-bay",
   "type": "Town",
   "parent_municipality": "Cape Breton",
   "parent_region": "Cape Breton",
   "lat": 46.1975,
   "lng": -59.9558,
   "postal": "B1Y",
   "population_2021": 16984,
   "unified_score": 65.1,
   "verification": "Census_Verified",
   "publishable": true,
   "rank": 13,
   "batch": 1
  },
  {
   "id": "NS-0087",
   "name": "Queens",
   "slug": "queens",
   "type": "Regional Municipality",
   "parent_municipality": "",
   "parent_region": "South Shore",
   "lat": 44.0343,
   "lng": -64.7201,
   "postal": "B4V",
   "population_2021": 10422,
   "unified_score": 64.3,
   "verification": "Census_Verified",
   "publishable": true,
   "rank": 14,
   "batch": 1
  },
  {
   "id": "NS-0192",
   "name": "Cumberland County",
   "slug": "cumberland-county",
   "type": "County Municipality",
   "parent_municipality": "",
   "parent_region": "Chignecto",
   "lat": 45.7,
   "lng": -64.05,
   "postal": "B4H",
   "population_2021": 27025,
   "unified_score": 63.9,
   "verification": "Census_Verified",
   "publishable": true,
   "rank": 15,
   "batch": 1
  },
  {
   "id": "NS-0006",
   "name": "Sydney Mines",
   "slug": "sydney-mines",
   "type": "Town",
   "parent_municipality": "Cape Breton",
   "parent_region": "Cape Breton",
   "lat": 46.2367,
   "lng": -60.22,
   "postal": "B1P",
   "population_2021": 7312,
   "unified_score": 63.6,
   "verification": "Census_Verified",
   "publishable": true,
   "rank": 16,
   "batch": 1
  },
  {
   "id": "NS-0008",
   "name": "North Sydney",
   "slug": "north-sydney",
   "type": "Town",
   "parent_municipality": "Cape Breton",
   "parent_region": "Cape Breton",
   "lat": 46.2167,
   "lng": -60.2483,
   "postal": "B1P",
   "population_2021": 6775,
   "unified_score": 63.5,
   "verification": "Census_Verified",
   "publishable": true,
   "rank": 17,
   "batch": 1
  },
  {
   "id": "NS-0095",
   "name": "Downtown Halifax",
   "slug": "downtown-halifax",
   "type": "Neighborhood",
   "parent_municipality": "Halifax",
   "parent_region": "Halifax Metro",
   "lat": 44.6476,
   "lng": -63.5728,
   "postal": "B3H",
   "population_2021": 25555,
   "unified_score": 63.5,
   "verification": "Census_Verified",
   "publishable": true,
   "rank": 18,
   "batch": 1
  },
  {
   "id": "NS-0007",
   "name": "New Waterford",
   "slug": "new-waterford",
   "type": "Town",
   "parent_municipality": "Cape Breton",
   "parent_region": "Cape Breton",
   "lat": 46.2467,
   "lng": -60.0833,
   "postal": "B1Y",
   "population_2021": 6944,
   "unified_score": 63.4,
   "verification": "Census_Verified",
   "publishable": true,
   "rank": 19,
   "batch": 1
  },
  {
   "id": "NS-0022",
   "name": "Inverness County",
   "slug": "inverness-county",
   "type": "County Municipality",
   "parent_municipality": "",
   "parent_region": "Cape Breton",
   "lat": 46.15,
   "lng": -61.15,
   "postal": "B1Y",
   "population_2021": 16067,
   "unified_score": 63.4,
   "verification": "Census_Verified",
   "publishable": true,
   "rank": 20,
   "batch": 1
  },
  {
   "id": "NS-0220",
   "name": "Pictou County",
   "slug": "pictou-county",
   "type": "County Municipality",
   "parent_municipality": "",
   "parent_region": "Northumberland Shore",
   "lat": 45.6,
   "lng": -62.7,
   "postal": "B2H",
   "population_2021": 21657,
   "unified_score": 63.4,
   "verification": "Census_Verified",
   "publishable": true,
   "rank": 21,
   "batch": 2
  },
  {
   "id": "NS-0045",
   "name": "Chester",
   "slug": "chester",
   "type": "District Municipality",
   "parent_municipality": "",
   "parent_region": "South Shore",
   "lat": 44.54,
   "lng": -64.24,
   "postal": "B4V",
   "population_2021": 10599,
   "unified_score": 63.1,
   "verification": "Census_Verified",
   "publishable": true,
   "rank": 22,
   "batch": 2
  },
  {
   "id": "NS-0013",
   "name": "Eastern Passage",
   "slug": "eastern-passage",
   "type": "Urban Community",
   "parent_municipality": "Halifax",
   "parent_region": "Halifax Metro",
   "lat": 44.6375,
   "lng": -63.5075,
   "postal": "B3H",
   "population_2021": 12000,
   "unified_score": 62.8,
   "verification": "Census_Verified",
   "publishable": true,
   "rank": 23,
   "batch": 2
  },
  {
   "id": "NS-0004",
   "name": "Truro",
   "slug": "truro",
   "type": "Town",
   "parent_municipality": "Colchester County",
   "parent_region": "Central Nova Scotia",
   "lat": 45.3647,
   "lng": -63.28,
   "postal": "B2N",
   "population_2021": 13038,
   "unified_score": 62.7,
   "verification": "Census_Verified",
   "publishable": true,
   "rank": 24,
   "batch": 2
  },
  {
   "id": "NS-0017",
   "name": "Hammonds Plains",
   "slug": "hammonds-plains",
   "type": "Community",
   "parent_municipality": "Halifax",
   "parent_region": "Halifax Metro",
   "lat": 44.7,
   "lng": -63.78,
   "postal": "B3H",
   "population_2021": 12000,
   "unified_score": 62.5,
   "verification": "Census_Verified",
   "publishable": true,
   "rank": 25,
   "batch": 2
  },
  {
   "id": "NS-0083",
   "name": "Victoria County",
   "slug": "victoria-county",
   "type": "County Municipality",
   "parent_municipality": "",
   "parent_region": "Cape Breton",
   "lat": 46.3,
   "lng": -60.75,
   "postal": "B1Y",
   "population_2021": 6744,
   "unified_score": 62.4,
   "verification": "Census_Verified",
   "publishable": true,
   "rank": 26,
   "batch": 2
  },
  {
   "id": "NS-0056",
   "name": "Annapolis County",
   "slug": "annapolis-county",
   "type": "County Municipality",
   "parent_municipality": "",
   "parent_region": "Annapolis Valley",
   "lat": 44.75,
   "lng": -65.25,
   "postal": "B4N",
   "population_2021": 19281,
   "unified_score": 62.0,
   "verification": "Census_Verified",
   "publishable": true,
   "rank": 27,
   "batch": 2
  },
  {
   "id": "NS-0082",
   "name": "Richmond County",
   "slug": "richmond-county",
   "type": "County Municipality",
   "parent_municipality": "",
   "parent_region": "Cape Breton",
   "lat": 45.65,
   "lng": -60.9,
   "postal": "B1Y",
   "population_2021": 8625,
   "unified_score": 62.0,
   "verification": "Census_Verified",
   "publishable": true,
   "rank": 28,
   "batch": 2
  },
  {
   "id": "NS-0014",
   "name": "Bridgewater",
   "slug": "bridgewater",
   "type": "Town",
   "parent_municipality": "Lunenburg District",
   "parent_region": "South Shore",
   "lat": 44.3748,
   "lng": -64.5201,
   "postal": "B4V",
   "population_2021": 8790,
   "unified_score": 61.9,
   "verification": "Census_Verified",
   "publishable": true,
   "rank": 29,
   "batch": 2
  },
  {
   "id": "NS-0005",
   "name": "North End Halifax",
   "slug": "north-end-halifax",
   "type": "Neighborhood",
   "parent_municipality": "Halifax",
   "parent_region": "Halifax Metro",
   "lat": 44.658,
   "lng": -63.585,
   "postal": "B3H",
   "population_2021": 18000,
   "unified_score": 61.8,
   "verification": "Census_Verified",
   "publishable": true,
   "rank": 30,
   "batch": 2
  },
  {
   "id": "NS-0041",
   "name": "Middle Sackville",
   "slug": "middle-sackville",
   "type": "Community",
   "parent_municipality": "Halifax",
   "parent_region": "Halifax Metro",
   "lat": 44.78,
   "lng": -63.7,
   "postal": "B4B",
   "population_2021": 8000,
   "unified_score": 61.6,
   "verification": "Census_Verified",
   "publishable": true,
   "rank": 31,
   "batch": 2
  },
  {
   "id": "NS-0042",
   "name": "Beaver Bank",
   "slug": "beaver-bank",
   "type": "Community",
   "parent_municipality": "Halifax",
   "parent_region": "Halifax Metro",
   "lat": 44.79,
   "lng": -63.67,
   "postal": "B4B",
   "population_2021": 8000,
   "unified_score": 61.6,
   "verification": "Census_Verified",
   "publishable": true,
   "rank": 32,
   "batch": 2
  },
  {
   "id": "NS-0043",
   "name": "Upper Tantallon",
   "slug": "upper-tantallon",
   "type": "Community",
   "parent_municipality": "Halifax",
   "parent_region": "Halifax Metro",
   "lat": 44.67,
   "lng": -63.82,
   "postal": "B3H",
   "population_2021": 8000,
   "unified_score": 61.6,
   "verification": "Census_Verified",
   "publishable": true,
   "rank": 33,
   "batch": 2
  },
  {
   "id": "NS-0009",
   "name": "South End Halifax",
   "slug": "south-end-halifax",
   "type": "Neighborhood",
   "parent_municipality": "Halifax",
   "parent_region": "Halifax Metro",
   "lat": 44.635,
   "lng": -63.575,
   "postal": "B3H",
   "population_2021": 15000,
   "unified_score": 61.4,
   "verification": "Census_Verified",
   "publishable": true,
   "rank": 34,
   "batch": 2
  },
  {
   "id": "NS-0061",
   "name": "Forest Hills",
   "slug": "forest-hills",
   "type": "Community",
   "parent_municipality": "Halifax",
   "parent_region": "Halifax Metro",
   "lat": 44.68,
   "lng": -63.51,
   "postal": "B3H",
   "population_2021": 6000,
   "unified_score": 61.4,
   "verification": "Census_Verified",
   "publishable": true,
   "rank": 35,
   "batch": 2
  },
  {
   "id": "NS-0065",
   "name": "Timberlea",
   "slug": "timberlea",
   "type": "Community",
   "parent_municipality": "Halifax",
   "parent_region": "Halifax Metro",
   "lat": 44.63,
   "lng": -63.66,
   "postal": "B3H",
   "population_2021": 6000,
   "unified_score": 61.4,
   "verification": "Census_Verified",
   "publishable": true,
   "rank": 36,
   "batch": 2
  },
  {
   "id": "NS-0027",
   "name": "Kentville",
   "slug": "kentville",
   "type": "Town",
   "parent_municipality": "Kings County",
   "parent_region": "Annapolis Valley",
   "lat": 45.0775,
   "lng": -64.496,
   "postal": "B4N",
   "population_2021": 6630,
   "unified_score": 61.2,
   "verification": "Census_Verified",
   "publishable": true,
   "rank": 37,
   "batch": 2
  },
  {
   "id": "NS-0011",
   "name": "Fairview",
   "slug": "fairview",
   "type": "Neighborhood",
   "parent_municipality": "Halifax",
   "parent_region": "Halifax Metro",
   "lat": 44.66,
   "lng": -63.62,
   "postal": "B3H",
   "population_2021": 12500,
   "unified_score": 61.0,
   "verification": "Census_Verified",
   "publishable": true,
   "rank": 38,
   "batch": 2
  },
  {
   "id": "NS-0020",
   "name": "Colby Village",
   "slug": "colby-village",
   "type": "Community",
   "parent_municipality": "Halifax",
   "parent_region": "Halifax Metro",
   "lat": 44.67,
   "lng": -63.49,
   "postal": "B3H",
   "population_2021": 5000,
   "unified_score": 61.0,
   "verification": "Census_Verified",
   "publishable": true,
   "rank": 39,
   "batch": 2
  },
  {
   "id": "NS-0021",
   "name": "Lakeside",
   "slug": "lakeside",
   "type": "Community",
   "parent_municipality": "Halifax",
   "parent_region": "Halifax Metro",
   "lat": 44.635,
   "lng": -63.68,
   "postal": "B3H",
   "population_2021": 5000,
   "unified_score": 61.0,
   "verification": "Census_Verified",
   "publishable": true,
   "rank": 40,
   "batch": 2
  },
  {
   "id": "NS-0072",
   "name": "Tantallon",
   "slug": "tantallon",
   "type": "Community",
   "parent_municipality": "Halifax",
   "parent_region": "Halifax Metro",
   "lat": 44.66,
   "lng": -63.81,
   "postal": "B3H",
   "population_2021": 6000,
   "unified_score": 61.0,
   "verification": "Census_Verified",
   "publishable": true,
   "rank": 41,
   "batch": 3
  },
  {
   "id": "NS-0086",
   "name": "Antigonish County",
   "slug": "antigonish-county",
   "type": "County Municipality",
   "parent_municipality": "",
   "parent_region": "Northumberland Shore",
   "lat": 45.58,
   "lng": -62.0,
   "postal": "B2H",
   "population_2021": 15140,
   "unified_score": 60.9,
   "verification": "Census_Verified",
   "publishable": true,
   "rank": 42,
   "batch": 3
  },
  {
   "id": "NS-0012",
   "name": "Spryfield",
   "slug": "spryfield",
   "type": "Neighborhood",
   "parent_municipality": "Halifax",
   "parent_region": "Halifax Metro",
   "lat": 44.61,
   "lng": -63.61,
   "postal": "B3H",
   "population_2021": 12000,
   "unified_score": 60.8,
   "verification": "Census_Verified",
   "publishable": true,
   "rank": 43,
   "batch": 3
  },
  {
   "id": "NS-0026",
   "name": "New Glasgow",
   "slug": "new-glasgow",
   "type": "Town",
   "parent_municipality": "Pictou County",
   "parent_region": "Northumberland Shore",
   "lat": 45.5926,
   "lng": -62.6467,
   "postal": "B2H",
   "population_2021": 9471,
   "unified_score": 60.7,
   "verification": "Census_Verified",
   "publishable": true,
   "rank": 44,
   "batch": 3
  },
  {
   "id": "NS-0037",
   "name": "Amherst",
   "slug": "amherst",
   "type": "Town",
   "parent_municipality": "Cumberland County",
   "parent_region": "Chignecto",
   "lat": 45.8275,
   "lng": -64.2133,
   "postal": "B4H",
   "population_2021": 9413,
   "unified_score": 60.3,
   "verification": "Census_Verified",
   "publishable": true,
   "rank": 45,
   "batch": 3
  },
  {
   "id": "NS-0031",
   "name": "West End Halifax",
   "slug": "west-end-halifax",
   "type": "Neighborhood",
   "parent_municipality": "Halifax",
   "parent_region": "Halifax Metro",
   "lat": 44.645,
   "lng": -63.595,
   "postal": "B3H",
   "population_2021": 8000,
   "unified_score": 60.1,
   "verification": "Census_Verified",
   "publishable": true,
   "rank": 46,
   "batch": 3
  },
  {
   "id": "NS-0032",
   "name": "Downtown Dartmouth",
   "slug": "downtown-dartmouth",
   "type": "Neighborhood",
   "parent_municipality": "Halifax",
   "parent_region": "Halifax Metro",
   "lat": 44.668,
   "lng": -63.562,
   "postal": "B3H",
   "population_2021": 8000,
   "unified_score": 60.1,
   "verification": "Census_Verified",
   "publishable": true,
   "rank": 47,
   "batch": 3
  },
  {
   "id": "NS-0033",
   "name": "North Dartmouth",
   "slug": "north-dartmouth",
   "type": "Neighborhood",
   "parent_municipality": "Halifax",
   "parent_region": "Halifax Metro",
   "lat": 44.685,
   "lng": -63.57,
   "postal": "B3H",
   "population_2021": 8000,
   "unified_score": 60.0,
   "verification": "Census_Verified",
   "publishable": true,
   "rank": 48,
   "batch": 3
  },
  {
   "id": "NS-0057",
   "name": "Clayton Park West",
   "slug": "clayton-park-west",
   "type": "Neighborhood",
   "parent_municipality": "Halifax",
   "parent_region": "Halifax Metro",
   "lat": 44.67,
   "lng": -63.65,
   "postal": "B3H",
   "population_2021": 6500,
   "unified_score": 59.6,
   "verification": "Census_Verified",
   "publishable": true,
   "rank": 49,
   "batch": 3
  },
  {
   "id": "NS-0058",
   "name": "Peninsula North",
   "slug": "peninsula-north",
   "type": "Neighborhood",
   "parent_municipality": "Halifax",
   "parent_region": "Halifax Metro",
   "lat": 44.66,
   "lng": -63.59,
   "postal": "B3H",
   "population_2021": 6000,
   "unified_score": 59.5,
   "verification": "Census_Verified",
   "publishable": true,
   "rank": 50,
   "batch": 3
  },
  {
   "id": "NS-0060",
   "name": "Portland Estates",
   "slug": "portland-estates",
   "type": "Neighborhood",
   "parent_municipality": "Halifax",
   "parent_region": "Halifax Metro",
   "lat": 44.64,
   "lng": -63.5,
   "postal": "B3H",
   "population_2021": 6000,
   "unified_score": 59.4,
   "verification": "Census_Verified",
   "publishable": true,
   "rank": 51,
   "batch": 3
  },
  {
   "id": "NS-0016",
   "name": "Spring Garden",
   "slug": "spring-garden",
   "type": "Neighborhood",
   "parent_municipality": "Halifax",
   "parent_region": "Halifax Metro",
   "lat": 44.642,
   "lng": -63.583,
   "postal": "B3H",
   "population_2021": 5000,
   "unified_score": 59.2,
   "verification": "Census_Verified",
   "publishable": true,
   "rank": 52,
   "batch": 3
  },
  {
   "id": "NS-0018",
   "name": "Rockingham",
   "slug": "rockingham",
   "type": "Neighborhood",
   "parent_municipality": "Halifax",
   "parent_region": "Halifax Metro",
   "lat": 44.67,
   "lng": -63.63,
   "postal": "B3H",
   "population_2021": 5000,
   "unified_score": 59.1,
   "verification": "Census_Verified",
   "publishable": true,
   "rank": 53,
   "batch": 3
  },
  {
   "id": "NS-0019",
   "name": "Westphal",
   "slug": "westphal",
   "type": "Neighborhood",
   "parent_municipality": "Halifax",
   "parent_region": "Halifax Metro",
   "lat": 44.65,
   "lng": -63.52,
   "postal": "B3H",
   "population_2021": 5000,
   "unified_score": 59.1,
   "verification": "Census_Verified",
   "publishable": true,
   "rank": 54,
   "batch": 3
  },
  {
   "id": "NS-0075",
   "name": "Clayton Park",
   "slug": "clayton-park",
   "type": "Neighborhood",
   "parent_municipality": "Halifax",
   "parent_region": "Halifax Metro",
   "lat": 44.6628,
   "lng": -63.6392,
   "postal": "B3H",
   "population_2021": 5201,
   "unified_score": 59.1,
   "verification": "Census_Verified",
   "publishable": true,
   "rank": 55,
   "batch": 3
  },
  {
   "id": "NS-0073",
   "name": "Bible Hill",
   "slug": "bible-hill",
   "type": "Community",
   "parent_municipality": "Colchester County",
   "parent_region": "Central Nova Scotia",
   "lat": 45.38,
   "lng": -63.26,
   "postal": "B2N",
   "population_2021": 5000,
   "unified_score": 58.7,
   "verification": "Census_Verified",
   "publishable": true,
   "rank": 56,
   "batch": 3
  },
  {
   "id": "NS-0133",
   "name": "Digby District",
   "slug": "digby-district",
   "type": "District Municipality",
   "parent_municipality": "",
   "parent_region": "Fundy Shore",
   "lat": 44.55,
   "lng": -65.8,
   "postal": "B0W",
   "population_2021": 7208,
   "unified_score": 58.7,
   "verification": "Census_Verified",
   "publishable": true,
   "rank": 57,
   "batch": 3
  },
  {
   "id": "NS-0155",
   "name": "Clare",
   "slug": "clare",
   "type": "District Municipality",
   "parent_municipality": "",
   "parent_region": "Fundy Shore",
   "lat": 44.3,
   "lng": -66.05,
   "postal": "B0W",
   "population_2021": 7692,
   "unified_score": 58.1,
   "verification": "Census_Verified",
   "publishable": true,
   "rank": 58,
   "batch": 3
  },
  {
   "id": "NS-0147",
   "name": "Yarmouth District",
   "slug": "yarmouth-district",
   "type": "District Municipality",
   "parent_municipality": "",
   "parent_region": "Fundy Shore",
   "lat": 43.85,
   "lng": -66.05,
   "postal": "B0W",
   "population_2021": 9585,
   "unified_score": 58.0,
   "verification": "Census_Verified",
   "publishable": true,
   "rank": 59,
   "batch": 3
  },
  {
   "id": "NS-0168",
   "name": "Argyle",
   "slug": "argyle",
   "type": "District Municipality",
   "parent_municipality": "",
   "parent_region": "Fundy Shore",
   "lat": 43.8,
   "lng": -65.85,
   "postal": "B0W",
   "population_2021": 7899,
   "unified_score": 58.0,
   "verification": "Census_Verified",
   "publishable": true,
   "rank": 60,
   "batch": 3
  },
  {
   "id": "NS-0088",
   "name": "Dominion",
   "slug": "dominion",
   "type": "Town",
   "parent_municipality": "Cape Breton",
   "parent_region": "Cape Breton",
   "lat": 46.2167,
   "lng": -59.9833,
   "postal": "B1Y",
   "population_2021": 2142,
   "unified_score": 57.9,
   "verification": "Census_Verified",
   "publishable": true,
   "rank": 61,
   "batch": 4
  },
  {
   "id": "NS-0179",
   "name": "Barrington",
   "slug": "barrington",
   "type": "District Municipality",
   "parent_municipality": "",
   "parent_region": "South Shore",
   "lat": 43.56,
   "lng": -65.56,
   "postal": "B4V",
   "population_2021": 6579,
   "unified_score": 57.8,
   "verification": "Census_Verified",
   "publishable": true,
   "rank": 62,
   "batch": 4
  },
  {
   "id": "NS-0036",
   "name": "Astral Drive",
   "slug": "astral-drive",
   "type": "Community",
   "parent_municipality": "Halifax",
   "parent_region": "Halifax Metro",
   "lat": 44.66,
   "lng": -63.48,
   "postal": "B3H",
   "population_2021": 4000,
   "unified_score": 57.5,
   "verification": "Census_Verified",
   "publishable": true,
   "rank": 63,
   "batch": 4
  },
  {
   "id": "NS-0084",
   "name": "Wolfville",
   "slug": "wolfville",
   "type": "Town",
   "parent_municipality": "Kings County",
   "parent_region": "Annapolis Valley",
   "lat": 45.09,
   "lng": -64.365,
   "postal": "B4N",
   "population_2021": 4195,
   "unified_score": 57.5,
   "verification": "Census_Verified",
   "publishable": true,
   "rank": 64,
   "batch": 4
  },
  {
   "id": "NS-0034",
   "name": "North Preston",
   "slug": "north-preston",
   "type": "Community",
   "parent_municipality": "Halifax",
   "parent_region": "Halifax Metro",
   "lat": 44.7,
   "lng": -63.45,
   "postal": "B3H",
   "population_2021": 4000,
   "unified_score": 57.4,
   "verification": "Census_Verified",
   "publishable": true,
   "rank": 65,
   "batch": 4
  },
  {
   "id": "NS-0044",
   "name": "Auburn Drive",
   "slug": "auburn-drive",
   "type": "Community",
   "parent_municipality": "Halifax",
   "parent_region": "Halifax Metro",
   "lat": 44.675,
   "lng": -63.485,
   "postal": "B3H",
   "population_2021": 3500,
   "unified_score": 57.3,
   "verification": "Census_Verified",
   "publishable": true,
   "rank": 66,
   "batch": 4
  },
  {
   "id": "NS-0039",
   "name": "Upper Sackville",
   "slug": "upper-sackville",
   "type": "Community",
   "parent_municipality": "Halifax",
   "parent_region": "Halifax Metro",
   "lat": 44.8,
   "lng": -63.72,
   "postal": "B4B",
   "population_2021": 4000,
   "unified_score": 57.2,
   "verification": "Census_Verified",
   "publishable": true,
   "rank": 67,
   "batch": 4
  },
  {
   "id": "NS-0047",
   "name": "Sydney River",
   "slug": "sydney-river",
   "type": "Community",
   "parent_municipality": "Cape Breton",
   "parent_region": "Cape Breton",
   "lat": 46.11,
   "lng": -60.22,
   "postal": "B1P",
   "population_2021": 3150,
   "unified_score": 57.2,
   "verification": "Census_Verified",
   "publishable": true,
   "rank": 68,
   "batch": 4
  },
  {
   "id": "NS-0104",
   "name": "Yarmouth",
   "slug": "yarmouth",
   "type": "Town",
   "parent_municipality": "Yarmouth District",
   "parent_region": "Fundy Shore",
   "lat": 43.8361,
   "lng": -66.1175,
   "postal": "B0W",
   "population_2021": 6772,
   "unified_score": 57.2,
   "verification": "Census_Verified",
   "publishable": true,
   "rank": 69,
   "batch": 4
  },
  {
   "id": "NS-0059",
   "name": "Beechville",
   "slug": "beechville",
   "type": "Community",
   "parent_municipality": "Halifax",
   "parent_region": "Halifax Metro",
   "lat": 44.64,
   "lng": -63.65,
   "postal": "B3H",
   "population_2021": 3000,
   "unified_score": 57.0,
   "verification": "Census_Verified",
   "publishable": true,
   "rank": 70,
   "batch": 4
  },
  {
   "id": "NS-0049",
   "name": "Stillwater Lake",
   "slug": "stillwater-lake",
   "type": "Community",
   "parent_municipality": "Halifax",
   "parent_region": "Halifax Metro",
   "lat": 44.68,
   "lng": -63.79,
   "postal": "B3H",
   "population_2021": 3379,
   "unified_score": 56.9,
   "verification": "Census_Verified",
   "publishable": true,
   "rank": 71,
   "batch": 4
  },
  {
   "id": "NS-0064",
   "name": "Westmount",
   "slug": "westmount",
   "type": "Community",
   "parent_municipality": "Cape Breton",
   "parent_region": "Cape Breton",
   "lat": 46.175,
   "lng": -60.24,
   "postal": "B1Y",
   "population_2021": 2829,
   "unified_score": 56.9,
   "verification": "Census_Verified",
   "publishable": true,
   "rank": 72,
   "batch": 4
  },
  {
   "id": "NS-0048",
   "name": "Elmsdale",
   "slug": "elmsdale",
   "type": "Community",
   "parent_municipality": "East Hants",
   "parent_region": "Central Nova Scotia",
   "lat": 44.96,
   "lng": -63.53,
   "postal": "B2N",
   "population_2021": 4000,
   "unified_score": 56.7,
   "verification": "Census_Verified",
   "publishable": true,
   "rank": 73,
   "batch": 4
  },
  {
   "id": "NS-0067",
   "name": "Lucasville",
   "slug": "lucasville",
   "type": "Community",
   "parent_municipality": "Halifax",
   "parent_region": "Halifax Metro",
   "lat": 44.75,
   "lng": -63.7,
   "postal": "B4B",
   "population_2021": 3000,
   "unified_score": 56.7,
   "verification": "Census_Verified",
   "publishable": true,
   "rank": 74,
   "batch": 4
  },
  {
   "id": "NS-0063",
   "name": "Uniacke",
   "slug": "uniacke",
   "type": "Community",
   "parent_municipality": "East Hants",
   "parent_region": "Central Nova Scotia",
   "lat": 44.91,
   "lng": -63.72,
   "postal": "B2N",
   "population_2021": 3500,
   "unified_score": 56.6,
   "verification": "Census_Verified",
   "publishable": true,
   "rank": 75,
   "batch": 4
  },
  {
   "id": "NS-0074",
   "name": "Howie Centre",
   "slug": "howie-centre",
   "type": "Community",
   "parent_municipality": "Cape Breton",
   "parent_region": "Cape Breton",
   "lat": 46.09,
   "lng": -60.26,
   "postal": "B1Y",
   "population_2021": 2500,
   "unified_score": 56.6,
   "verification": "Census_Verified",
   "publishable": true,
   "rank": 76,
   "batch": 4
  },
  {
   "id": "NS-0101",
   "name": "Lunenburg",
   "slug": "lunenburg",
   "type": "Town",
   "parent_municipality": "Lunenburg District",
   "parent_region": "South Shore",
   "lat": 44.3784,
   "lng": -64.3117,
   "postal": "B4V",
   "population_2021": 2263,
   "unified_score": 56.6,
   "verification": "Census_Verified",
   "publishable": true,
   "rank": 77,
   "batch": 4
  },
  {
   "id": "NS-0062",
   "name": "Enfield",
   "slug": "enfield",
   "type": "Community",
   "parent_municipality": "Halifax",
   "parent_region": "Halifax Metro",
   "lat": 44.93,
   "lng": -63.5,
   "postal": "B4B",
   "population_2021": 3500,
   "unified_score": 56.5,
   "verification": "Census_Verified",
   "publishable": true,
   "rank": 78,
   "batch": 4
  },
  {
   "id": "NS-0066",
   "name": "Enfield (EH)",
   "slug": "enfield-eh",
   "type": "Community",
   "parent_municipality": "East Hants",
   "parent_region": "Central Nova Scotia",
   "lat": 44.94,
   "lng": -63.52,
   "postal": "B2N",
   "population_2021": 3500,
   "unified_score": 56.5,
   "verification": "Census_Verified",
   "publishable": true,
   "rank": 79,
   "batch": 4
  },
  {
   "id": "NS-0068",
   "name": "Porters Lake",
   "slug": "porters-lake",
   "type": "Community",
   "parent_municipality": "Halifax",
   "parent_region": "Halifax Metro",
   "lat": 44.73,
   "lng": -63.3,
   "postal": "B4B",
   "population_2021": 3000,
   "unified_score": 56.5,
   "verification": "Census_Verified",
   "publishable": true,
   "rank": 80,
   "batch": 4
  },
  {
   "id": "NS-0081",
   "name": "Grand Lake Road",
   "slug": "grand-lake-road",
   "type": "Community",
   "parent_municipality": "Cape Breton",
   "parent_region": "Cape Breton",
   "lat": 46.11,
   "lng": -60.28,
   "postal": "B1Y",
   "population_2021": 2337,
   "unified_score": 56.5,
   "verification": "Census_Verified",
   "publishable": true,
   "rank": 81,
   "batch": 5
  },
  {
   "id": "NS-0079",
   "name": "Fall River",
   "slug": "fall-river",
   "type": "Community",
   "parent_municipality": "Halifax",
   "parent_region": "Halifax Metro",
   "lat": 44.78,
   "lng": -63.57,
   "postal": "B4B",
   "population_2021": 2474,
   "unified_score": 56.4,
   "verification": "Census_Verified",
   "publishable": true,
   "rank": 82,
   "batch": 5
  },
  {
   "id": "NS-0080",
   "name": "Coxheath",
   "slug": "coxheath",
   "type": "Community",
   "parent_municipality": "Cape Breton",
   "parent_region": "Cape Breton",
   "lat": 46.0817,
   "lng": -60.335,
   "postal": "B1Y",
   "population_2021": 2404,
   "unified_score": 56.4,
   "verification": "Census_Verified",
   "publishable": true,
   "rank": 83,
   "batch": 5
  },
  {
   "id": "NS-0211",
   "name": "Louisbourg",
   "slug": "louisbourg",
   "type": "Town",
   "parent_municipality": "Cape Breton",
   "parent_region": "Cape Breton",
   "lat": 45.9167,
   "lng": -59.9667,
   "postal": "B1Y",
   "population_2021": 1157,
   "unified_score": 56.4,
   "verification": "Census_Verified",
   "publishable": true,
   "rank": 84,
   "batch": 5
  },
  {
   "id": "NS-0078",
   "name": "Hubley",
   "slug": "hubley",
   "type": "Community",
   "parent_municipality": "Halifax",
   "parent_region": "Halifax Metro",
   "lat": 44.65,
   "lng": -63.78,
   "postal": "B3H",
   "population_2021": 2500,
   "unified_score": 56.3,
   "verification": "Census_Verified",
   "publishable": true,
   "rank": 85,
   "batch": 5
  },
  {
   "id": "NS-0085",
   "name": "Lake Echo",
   "slug": "lake-echo",
   "type": "Community",
   "parent_municipality": "Halifax",
   "parent_region": "Halifax Metro",
   "lat": 44.7,
   "lng": -63.38,
   "postal": "B3H",
   "population_2021": 2365,
   "unified_score": 56.2,
   "verification": "Census_Verified",
   "publishable": true,
   "rank": 86,
   "batch": 5
  },
  {
   "id": "NS-0123",
   "name": "Caldwell Road",
   "slug": "caldwell-road",
   "type": "Community",
   "parent_municipality": "Halifax",
   "parent_region": "Halifax Metro",
   "lat": 44.67,
   "lng": -63.5,
   "postal": "B3H",
   "population_2021": 2000,
   "unified_score": 56.2,
   "verification": "Census_Verified",
   "publishable": true,
   "rank": 87,
   "batch": 5
  },
  {
   "id": "NS-0093",
   "name": "Stellarton",
   "slug": "stellarton",
   "type": "Town",
   "parent_municipality": "Pictou County",
   "parent_region": "Northumberland Shore",
   "lat": 45.56,
   "lng": -62.66,
   "postal": "B2H",
   "population_2021": 4208,
   "unified_score": 56.1,
   "verification": "Census_Verified",
   "publishable": true,
   "rank": 88,
   "batch": 5
  },
  {
   "id": "NS-0099",
   "name": "Port Hawkesbury",
   "slug": "port-hawkesbury",
   "type": "Town",
   "parent_municipality": "Inverness County",
   "parent_region": "Cape Breton",
   "lat": 45.6167,
   "lng": -61.35,
   "postal": "B1Y",
   "population_2021": 3214,
   "unified_score": 56.1,
   "verification": "Census_Verified",
   "publishable": true,
   "rank": 89,
   "batch": 5
  },
  {
   "id": "NS-0120",
   "name": "Harrietsfield",
   "slug": "harrietsfield",
   "type": "Community",
   "parent_municipality": "Halifax",
   "parent_region": "Halifax Metro",
   "lat": 44.57,
   "lng": -63.63,
   "postal": "B3H",
   "population_2021": 2000,
   "unified_score": 56.1,
   "verification": "Census_Verified",
   "publishable": true,
   "rank": 90,
   "batch": 5
  },
  {
   "id": "NS-0122",
   "name": "Goodwood",
   "slug": "goodwood",
   "type": "Community",
   "parent_municipality": "Halifax",
   "parent_region": "Halifax Metro",
   "lat": 44.6,
   "lng": -63.65,
   "postal": "B3H",
   "population_2021": 2000,
   "unified_score": 56.1,
   "verification": "Census_Verified",
   "publishable": true,
   "rank": 91,
   "batch": 5
  },
  {
   "id": "NS-0092",
   "name": "Guysborough",
   "slug": "guysborough",
   "type": "District Municipality",
   "parent_municipality": "",
   "parent_region": "Eastern Shore",
   "lat": 45.35,
   "lng": -61.5,
   "postal": "B0J",
   "population_2021": 4640,
   "unified_score": 56.0,
   "verification": "Census_Verified",
   "publishable": true,
   "rank": 92,
   "batch": 5
  },
  {
   "id": "NS-0098",
   "name": "Westville",
   "slug": "westville",
   "type": "Town",
   "parent_municipality": "Pictou County",
   "parent_region": "Northumberland Shore",
   "lat": 45.5483,
   "lng": -62.7067,
   "postal": "B2H",
   "population_2021": 3774,
   "unified_score": 56.0,
   "verification": "Census_Verified",
   "publishable": true,
   "rank": 93,
   "batch": 5
  },
  {
   "id": "NS-0121",
   "name": "Herring Cove",
   "slug": "herring-cove",
   "type": "Community",
   "parent_municipality": "Halifax",
   "parent_region": "Halifax Metro",
   "lat": 44.55,
   "lng": -63.57,
   "postal": "B3H",
   "population_2021": 2000,
   "unified_score": 56.0,
   "verification": "Census_Verified",
   "publishable": true,
   "rank": 94,
   "batch": 5
  },
  {
   "id": "NS-0077",
   "name": "Windsor",
   "slug": "windsor",
   "type": "Community",
   "parent_municipality": "West Hants",
   "parent_region": "Annapolis Valley",
   "lat": 44.9833,
   "lng": -64.13,
   "postal": "B4N",
   "population_2021": 3785,
   "unified_score": 55.9,
   "verification": "Census_Verified",
   "publishable": true,
   "rank": 95,
   "batch": 5
  },
  {
   "id": "NS-0107",
   "name": "Berwick",
   "slug": "berwick",
   "type": "Town",
   "parent_municipality": "Kings County",
   "parent_region": "Annapolis Valley",
   "lat": 45.05,
   "lng": -64.7333,
   "postal": "B4N",
   "population_2021": 2723,
   "unified_score": 55.9,
   "verification": "Census_Verified",
   "publishable": true,
   "rank": 96,
   "batch": 5
  },
  {
   "id": "NS-0124",
   "name": "East Preston",
   "slug": "east-preston",
   "type": "Community",
   "parent_municipality": "Halifax",
   "parent_region": "Halifax Metro",
   "lat": 44.71,
   "lng": -63.42,
   "postal": "B4B",
   "population_2021": 2000,
   "unified_score": 55.9,
   "verification": "Census_Verified",
   "publishable": true,
   "rank": 97,
   "batch": 5
  },
  {
   "id": "NS-0217",
   "name": "Stewiacke",
   "slug": "stewiacke",
   "type": "Town",
   "parent_municipality": "Colchester County",
   "parent_region": "Central Nova Scotia",
   "lat": 45.1417,
   "lng": -63.3417,
   "postal": "B2N",
   "population_2021": 1421,
   "unified_score": 55.9,
   "verification": "Census_Verified",
   "publishable": true,
   "rank": 98,
   "batch": 5
  },
  {
   "id": "NS-0127",
   "name": "Reserve Mines",
   "slug": "reserve-mines",
   "type": "Community",
   "parent_municipality": "Cape Breton",
   "parent_region": "Cape Breton",
   "lat": 46.21,
   "lng": -60.02,
   "postal": "B1Y",
   "population_2021": 1948,
   "unified_score": 55.8,
   "verification": "Census_Verified",
   "publishable": true,
   "rank": 99,
   "batch": 5
  },
  {
   "id": "NS-0023",
   "name": "Quinpool",
   "slug": "quinpool",
   "type": "Neighborhood",
   "parent_municipality": "Halifax",
   "parent_region": "Halifax Metro",
   "lat": 44.644,
   "lng": -63.595,
   "postal": "B3H",
   "population_2021": 4000,
   "unified_score": 55.7,
   "verification": "Census_Verified",
   "publishable": true,
   "rank": 100,
   "batch": 5
  },
  {
   "id": "NS-0024",
   "name": "Highfield Park",
   "slug": "highfield-park",
   "type": "Neighborhood",
   "parent_municipality": "Halifax",
   "parent_region": "Halifax Metro",
   "lat": 44.655,
   "lng": -63.55,
   "postal": "B3H",
   "population_2021": 4000,
   "unified_score": 55.7,
   "verification": "Census_Verified",
   "publishable": true,
   "rank": 101,
   "batch": 6
  },
  {
   "id": "NS-0028",
   "name": "Armdale",
   "slug": "armdale",
   "type": "Neighborhood",
   "parent_municipality": "Halifax",
   "parent_region": "Halifax Metro",
   "lat": 44.63,
   "lng": -63.61,
   "postal": "B3H",
   "population_2021": 4000,
   "unified_score": 55.7,
   "verification": "Census_Verified",
   "publishable": true,
   "rank": 102,
   "batch": 6
  },
  {
   "id": "NS-0029",
   "name": "Woodside",
   "slug": "woodside",
   "type": "Neighborhood",
   "parent_municipality": "Halifax",
   "parent_region": "Halifax Metro",
   "lat": 44.66,
   "lng": -63.54,
   "postal": "B3H",
   "population_2021": 4000,
   "unified_score": 55.7,
   "verification": "Census_Verified",
   "publishable": true,
   "rank": 103,
   "batch": 6
  },
  {
   "id": "NS-0134",
   "name": "Florence",
   "slug": "florence",
   "type": "Community",
   "parent_municipality": "Cape Breton",
   "parent_region": "Cape Breton",
   "lat": 46.23,
   "lng": -60.12,
   "postal": "B1Y",
   "population_2021": 1684,
   "unified_score": 55.7,
   "verification": "Census_Verified",
   "publishable": true,
   "rank": 104,
   "batch": 6
  },
  {
   "id": "NS-0030",
   "name": "Russell Lake",
   "slug": "russell-lake",
   "type": "Neighborhood",
   "parent_municipality": "Halifax",
   "parent_region": "Halifax Metro",
   "lat": 44.66,
   "lng": -63.51,
   "postal": "B3H",
   "population_2021": 4000,
   "unified_score": 55.6,
   "verification": "Census_Verified",
   "publishable": true,
   "rank": 105,
   "batch": 6
  },
  {
   "id": "NS-0076",
   "name": "New Minas",
   "slug": "new-minas",
   "type": "Community",
   "parent_municipality": "Kings County",
   "parent_region": "Annapolis Valley",
   "lat": 45.06,
   "lng": -64.43,
   "postal": "B4N",
   "population_2021": 4700,
   "unified_score": 55.6,
   "verification": "Census_Verified",
   "publishable": true,
   "rank": 106,
   "batch": 6
  },
  {
   "id": "NS-0135",
   "name": "Mira Road",
   "slug": "mira-road",
   "type": "Community",
   "parent_municipality": "Cape Breton",
   "parent_region": "Cape Breton",
   "lat": 46.07,
   "lng": -60.15,
   "postal": "B1Y",
   "population_2021": 1578,
   "unified_score": 55.6,
   "verification": "Census_Verified",
   "publishable": true,
   "rank": 107,
   "batch": 6
  },
  {
   "id": "NS-0143",
   "name": "Westphal South",
   "slug": "westphal-south",
   "type": "Community",
   "parent_municipality": "Halifax",
   "parent_region": "Halifax Metro",
   "lat": 44.64,
   "lng": -63.51,
   "postal": "B3H",
   "population_2021": 1500,
   "unified_score": 55.6,
   "verification": "Census_Verified",
   "publishable": true,
   "rank": 108,
   "batch": 6
  },
  {
   "id": "NS-0035",
   "name": "Larry Uteck",
   "slug": "larry-uteck",
   "type": "Neighborhood",
   "parent_municipality": "Halifax",
   "parent_region": "Halifax Metro",
   "lat": 44.7,
   "lng": -63.66,
   "postal": "B3H",
   "population_2021": 4000,
   "unified_score": 55.5,
   "verification": "Census_Verified",
   "publishable": true,
   "rank": 109,
   "batch": 6
  },
  {
   "id": "NS-0149",
   "name": "Hatchet Lake",
   "slug": "hatchet-lake",
   "type": "Community",
   "parent_municipality": "Halifax",
   "parent_region": "Halifax Metro",
   "lat": 44.59,
   "lng": -63.68,
   "postal": "B3H",
   "population_2021": 1500,
   "unified_score": 55.5,
   "verification": "Census_Verified",
   "publishable": true,
   "rank": 110,
   "batch": 6
  },
  {
   "id": "NS-0150",
   "name": "Montague Gold Mines",
   "slug": "montague-gold-mines",
   "type": "Community",
   "parent_municipality": "Halifax",
   "parent_region": "Halifax Metro",
   "lat": 44.69,
   "lng": -63.48,
   "postal": "B3H",
   "population_2021": 1500,
   "unified_score": 55.5,
   "verification": "Census_Verified",
   "publishable": true,
   "rank": 111,
   "batch": 6
  },
  {
   "id": "NS-0151",
   "name": "Brookside",
   "slug": "brookside",
   "type": "Community",
   "parent_municipality": "Halifax",
   "parent_region": "Halifax Metro",
   "lat": 44.61,
   "lng": -63.66,
   "postal": "B3H",
   "population_2021": 1500,
   "unified_score": 55.5,
   "verification": "Census_Verified",
   "publishable": true,
   "rank": 112,
   "batch": 6
  },
  {
   "id": "NS-0038",
   "name": "Hydrostone",
   "slug": "hydrostone",
   "type": "Neighborhood",
   "parent_municipality": "Halifax",
   "parent_region": "Halifax Metro",
   "lat": 44.662,
   "lng": -63.588,
   "postal": "B3H",
   "population_2021": 3500,
   "unified_score": 55.4,
   "verification": "Census_Verified",
   "publishable": true,
   "rank": 113,
   "batch": 6
  },
  {
   "id": "NS-0105",
   "name": "Antigonish",
   "slug": "antigonish",
   "type": "Town",
   "parent_municipality": "Antigonish County",
   "parent_region": "Northumberland Shore",
   "lat": 45.62,
   "lng": -61.9983,
   "postal": "B2H",
   "population_2021": 4364,
   "unified_score": 55.4,
   "verification": "Census_Verified",
   "publishable": true,
   "rank": 114,
   "batch": 6
  },
  {
   "id": "NS-0040",
   "name": "Shearwater",
   "slug": "shearwater",
   "type": "Neighborhood",
   "parent_municipality": "Halifax",
   "parent_region": "Halifax Metro",
   "lat": 44.6381,
   "lng": -63.5136,
   "postal": "B3H",
   "population_2021": 3500,
   "unified_score": 55.3,
   "verification": "Census_Verified",
   "publishable": true,
   "rank": 115,
   "batch": 6
  },
  {
   "id": "NS-0110",
   "name": "Pictou",
   "slug": "pictou",
   "type": "Town",
   "parent_municipality": "Pictou County",
   "parent_region": "Northumberland Shore",
   "lat": 45.6783,
   "lng": -62.7117,
   "postal": "B2H",
   "population_2021": 3186,
   "unified_score": 55.3,
   "verification": "Census_Verified",
   "publishable": true,
   "rank": 116,
   "batch": 6
  },
  {
   "id": "NS-0157",
   "name": "Lawrencetown",
   "slug": "lawrencetown",
   "type": "Community",
   "parent_municipality": "Halifax",
   "parent_region": "Halifax Metro",
   "lat": 44.65,
   "lng": -63.38,
   "postal": "B3H",
   "population_2021": 1500,
   "unified_score": 55.3,
   "verification": "Census_Verified",
   "publishable": true,
   "rank": 117,
   "batch": 6
  },
  {
   "id": "NS-0158",
   "name": "Cherry Brook",
   "slug": "cherry-brook",
   "type": "Community",
   "parent_municipality": "Halifax",
   "parent_region": "Halifax Metro",
   "lat": 44.71,
   "lng": -63.4,
   "postal": "B4B",
   "population_2021": 1500,
   "unified_score": 55.3,
   "verification": "Census_Verified",
   "publishable": true,
   "rank": 118,
   "batch": 6
  },
  {
   "id": "NS-0156",
   "name": "Lewis Lake",
   "slug": "lewis-lake",
   "type": "Community",
   "parent_municipality": "Halifax",
   "parent_region": "Halifax Metro",
   "lat": 44.64,
   "lng": -63.8,
   "postal": "B3H",
   "population_2021": 1500,
   "unified_score": 55.2,
   "verification": "Census_Verified",
   "publishable": true,
   "rank": 119,
   "batch": 6
  },
  {
   "id": "NS-0169",
   "name": "Sambro",
   "slug": "sambro",
   "type": "Community",
   "parent_municipality": "Halifax",
   "parent_region": "Halifax Metro",
   "lat": 44.4833,
   "lng": -63.6,
   "postal": "B3H",
   "population_2021": 1500,
   "unified_score": 55.2,
   "verification": "Census_Verified",
   "publishable": true,
   "rank": 120,
   "batch": 6
  },
  {
   "id": "NS-0050",
   "name": "Jollimore",
   "slug": "jollimore",
   "type": "Neighborhood",
   "parent_municipality": "Halifax",
   "parent_region": "Halifax Metro",
   "lat": 44.62,
   "lng": -63.6,
   "postal": "B3H",
   "population_2021": 3000,
   "unified_score": 55.1,
   "verification": "Census_Verified",
   "publishable": true,
   "rank": 121,
   "batch": 7
  },
  {
   "id": "NS-0051",
   "name": "Cowie Hill",
   "slug": "cowie-hill",
   "type": "Neighborhood",
   "parent_municipality": "Halifax",
   "parent_region": "Halifax Metro",
   "lat": 44.62,
   "lng": -63.605,
   "postal": "B3H",
   "population_2021": 3000,
   "unified_score": 55.1,
   "verification": "Census_Verified",
   "publishable": true,
   "rank": 122,
   "batch": 7
  },
  {
   "id": "NS-0052",
   "name": "Crichton Park",
   "slug": "crichton-park",
   "type": "Neighborhood",
   "parent_municipality": "Halifax",
   "parent_region": "Halifax Metro",
   "lat": 44.665,
   "lng": -63.555,
   "postal": "B3H",
   "population_2021": 3000,
   "unified_score": 55.1,
   "verification": "Census_Verified",
   "publishable": true,
   "rank": 123,
   "batch": 7
  },
  {
   "id": "NS-0053",
   "name": "Albro Lake",
   "slug": "albro-lake",
   "type": "Neighborhood",
   "parent_municipality": "Halifax",
   "parent_region": "Halifax Metro",
   "lat": 44.673,
   "lng": -63.56,
   "postal": "B3H",
   "population_2021": 3000,
   "unified_score": 55.1,
   "verification": "Census_Verified",
   "publishable": true,
   "rank": 124,
   "batch": 7
  },
  {
   "id": "NS-0054",
   "name": "Mic Mac",
   "slug": "mic-mac",
   "type": "Neighborhood",
   "parent_municipality": "Halifax",
   "parent_region": "Halifax Metro",
   "lat": 44.68,
   "lng": -63.55,
   "postal": "B3H",
   "population_2021": 3000,
   "unified_score": 55.1,
   "verification": "Census_Verified",
   "publishable": true,
   "rank": 125,
   "batch": 7
  },
  {
   "id": "NS-0055",
   "name": "Dalhousie",
   "slug": "dalhousie",
   "type": "Neighborhood",
   "parent_municipality": "Halifax",
   "parent_region": "Halifax Metro",
   "lat": 44.637,
   "lng": -63.593,
   "postal": "B3H",
   "population_2021": 3000,
   "unified_score": 55.1,
   "verification": "Census_Verified",
   "publishable": true,
   "rank": 126,
   "batch": 7
  },
  {
   "id": "NS-0171",
   "name": "Prospect",
   "slug": "prospect",
   "type": "Community",
   "parent_municipality": "Halifax",
   "parent_region": "Halifax Metro",
   "lat": 44.47,
   "lng": -63.75,
   "postal": "B3H",
   "population_2021": 1500,
   "unified_score": 55.1,
   "verification": "Census_Verified",
   "publishable": true,
   "rank": 127,
   "batch": 7
  },
  {
   "id": "NS-0174",
   "name": "Cow Bay",
   "slug": "cow-bay",
   "type": "Community",
   "parent_municipality": "Halifax",
   "parent_region": "Halifax Metro",
   "lat": 44.62,
   "lng": -63.49,
   "postal": "B3H",
   "population_2021": 1224,
   "unified_score": 55.1,
   "verification": "Census_Verified",
   "publishable": true,
   "rank": 128,
   "batch": 7
  },
  {
   "id": "NS-0126",
   "name": "Trenton",
   "slug": "trenton",
   "type": "Town",
   "parent_municipality": "Pictou County",
   "parent_region": "Northumberland Shore",
   "lat": 45.6167,
   "lng": -62.6333,
   "postal": "B2H",
   "population_2021": 2638,
   "unified_score": 55.0,
   "verification": "Census_Verified",
   "publishable": true,
   "rank": 129,
   "batch": 7
  },
  {
   "id": "NS-0046",
   "name": "Eskasoni First Nation",
   "slug": "eskasoni-first-nation",
   "type": "First Nations Reserve",
   "parent_municipality": "",
   "parent_region": "Cape Breton",
   "lat": 45.94,
   "lng": -60.62,
   "postal": "B1Y",
   "population_2021": 4383,
   "unified_score": 54.8,
   "verification": "Census_Verified",
   "publishable": true,
   "rank": 130,
   "batch": 7
  },
  {
   "id": "NS-0109",
   "name": "Shelburne District",
   "slug": "shelburne-district",
   "type": "District Municipality",
   "parent_municipality": "",
   "parent_region": "South Shore",
   "lat": 43.7,
   "lng": -65.3,
   "postal": "B4V",
   "population_2021": 4531,
   "unified_score": 54.8,
   "verification": "Census_Verified",
   "publishable": true,
   "rank": 131,
   "batch": 7
  },
  {
   "id": "NS-0185",
   "name": "Fletchers Lake",
   "slug": "fletchers-lake",
   "type": "Community",
   "parent_municipality": "Halifax",
   "parent_region": "Halifax Metro",
   "lat": 44.8,
   "lng": -63.55,
   "postal": "B4B",
   "population_2021": 1200,
   "unified_score": 54.8,
   "verification": "Census_Verified",
   "publishable": true,
   "rank": 132,
   "batch": 7
  },
  {
   "id": "NS-0194",
   "name": "New Victoria",
   "slug": "new-victoria",
   "type": "Community",
   "parent_municipality": "Cape Breton",
   "parent_region": "Cape Breton",
   "lat": 46.23,
   "lng": -60.19,
   "postal": "B1Y",
   "population_2021": 1093,
   "unified_score": 54.8,
   "verification": "Census_Verified",
   "publishable": true,
   "rank": 133,
   "batch": 7
  },
  {
   "id": "NS-0069",
   "name": "Kline Heights",
   "slug": "kline-heights",
   "type": "Neighborhood",
   "parent_municipality": "Halifax",
   "parent_region": "Halifax Metro",
   "lat": 44.655,
   "lng": -63.605,
   "postal": "B3H",
   "population_2021": 2500,
   "unified_score": 54.7,
   "verification": "Census_Verified",
   "publishable": true,
   "rank": 134,
   "batch": 7
  },
  {
   "id": "NS-0070",
   "name": "Brightwood",
   "slug": "brightwood",
   "type": "Neighborhood",
   "parent_municipality": "Halifax",
   "parent_region": "Halifax Metro",
   "lat": 44.67,
   "lng": -63.555,
   "postal": "B3H",
   "population_2021": 2500,
   "unified_score": 54.7,
   "verification": "Census_Verified",
   "publishable": true,
   "rank": 135,
   "batch": 7
  },
  {
   "id": "NS-0071",
   "name": "Point Pleasant",
   "slug": "point-pleasant",
   "type": "Neighborhood",
   "parent_municipality": "Halifax",
   "parent_region": "Halifax Metro",
   "lat": 44.625,
   "lng": -63.57,
   "postal": "B3H",
   "population_2021": 2500,
   "unified_score": 54.7,
   "verification": "Census_Verified",
   "publishable": true,
   "rank": 136,
   "batch": 7
  },
  {
   "id": "NS-0094",
   "name": "Cheticamp",
   "slug": "cheticamp",
   "type": "Community",
   "parent_municipality": "Inverness County",
   "parent_region": "Cape Breton",
   "lat": 46.6333,
   "lng": -61.0083,
   "postal": "B1Y",
   "population_2021": 2975,
   "unified_score": 54.7,
   "verification": "Census_Verified",
   "publishable": true,
   "rank": 137,
   "batch": 7
  },
  {
   "id": "NS-0193",
   "name": "French Village",
   "slug": "french-village",
   "type": "Community",
   "parent_municipality": "Halifax",
   "parent_region": "Halifax Metro",
   "lat": 44.63,
   "lng": -63.85,
   "postal": "B3H",
   "population_2021": 1200,
   "unified_score": 54.7,
   "verification": "Census_Verified",
   "publishable": true,
   "rank": 138,
   "batch": 7
  },
  {
   "id": "NS-0202",
   "name": "River Ryan",
   "slug": "river-ryan",
   "type": "Community",
   "parent_municipality": "Cape Breton",
   "parent_region": "Cape Breton",
   "lat": 46.22,
   "lng": -60.04,
   "postal": "B1Y",
   "population_2021": 1122,
   "unified_score": 54.7,
   "verification": "Census_Verified",
   "publishable": true,
   "rank": 139,
   "batch": 7
  },
  {
   "id": "NS-0203",
   "name": "Scotchtown",
   "slug": "scotchtown",
   "type": "Community",
   "parent_municipality": "Cape Breton",
   "parent_region": "Cape Breton",
   "lat": 46.23,
   "lng": -60.06,
   "postal": "B1Y",
   "population_2021": 1082,
   "unified_score": 54.7,
   "verification": "Census_Verified",
   "publishable": true,
   "rank": 140,
   "batch": 7
  },
  {
   "id": "NS-0090",
   "name": "Greenwood",
   "slug": "greenwood",
   "type": "Community",
   "parent_municipality": "Kings County",
   "parent_region": "Annapolis Valley",
   "lat": 44.97,
   "lng": -64.94,
   "postal": "B4N",
   "population_2021": 4500,
   "unified_score": 54.6,
   "verification": "Census_Verified",
   "publishable": true,
   "rank": 141,
   "batch": 8
  },
  {
   "id": "NS-0242",
   "name": "Middleton",
   "slug": "middleton",
   "type": "Town",
   "parent_municipality": "Annapolis County",
   "parent_region": "Annapolis Valley",
   "lat": 44.9417,
   "lng": -65.0667,
   "postal": "B4N",
   "population_2021": 1867,
   "unified_score": 54.6,
   "verification": "Census_Verified",
   "publishable": true,
   "rank": 142,
   "batch": 8
  },
  {
   "id": "NS-0096",
   "name": "Coldbrook",
   "slug": "coldbrook",
   "type": "Community",
   "parent_municipality": "Kings County",
   "parent_region": "Annapolis Valley",
   "lat": 45.06,
   "lng": -64.55,
   "postal": "B4N",
   "population_2021": 3000,
   "unified_score": 54.5,
   "verification": "Census_Verified",
   "publishable": true,
   "rank": 143,
   "batch": 8
  },
  {
   "id": "NS-0201",
   "name": "West Chezzetcook",
   "slug": "west-chezzetcook",
   "type": "Community",
   "parent_municipality": "Halifax",
   "parent_region": "Halifax Metro",
   "lat": 44.73,
   "lng": -63.25,
   "postal": "B4B",
   "population_2021": 1200,
   "unified_score": 54.5,
   "verification": "Census_Verified",
   "publishable": true,
   "rank": 144,
   "batch": 8
  },
  {
   "id": "NS-0212",
   "name": "English Corner",
   "slug": "english-corner",
   "type": "Community",
   "parent_municipality": "Halifax",
   "parent_region": "Halifax Metro",
   "lat": 44.72,
   "lng": -63.35,
   "postal": "B4B",
   "population_2021": 1058,
   "unified_score": 54.5,
   "verification": "Census_Verified",
   "publishable": true,
   "rank": 145,
   "batch": 8
  },
  {
   "id": "NS-0129",
   "name": "Goffs",
   "slug": "goffs",
   "type": "Community",
   "parent_municipality": "Halifax",
   "parent_region": "Halifax Metro",
   "lat": 44.81,
   "lng": -63.56,
   "postal": "B4B",
   "population_2021": 1000,
   "unified_score": 54.4,
   "verification": "Census_Verified",
   "publishable": true,
   "rank": 146,
   "batch": 8
  },
  {
   "id": "NS-0148",
   "name": "St. Mary's",
   "slug": "st-mary-s",
   "type": "District Municipality",
   "parent_municipality": "",
   "parent_region": "Eastern Shore",
   "lat": 45.15,
   "lng": -62.0,
   "postal": "B0J",
   "population_2021": 2161,
   "unified_score": 54.4,
   "verification": "Census_Verified",
   "publishable": true,
   "rank": 147,
   "batch": 8
  },
  {
   "id": "NS-0184",
   "name": "Falmouth",
   "slug": "falmouth",
   "type": "Community",
   "parent_municipality": "West Hants",
   "parent_region": "Annapolis Valley",
   "lat": 44.99,
   "lng": -64.15,
   "postal": "B4N",
   "population_2021": 1800,
   "unified_score": 54.4,
   "verification": "Census_Verified",
   "publishable": true,
   "rank": 148,
   "batch": 8
  },
  {
   "id": "NS-0100",
   "name": "Isle Madame",
   "slug": "isle-madame",
   "type": "Community",
   "parent_municipality": "Richmond County",
   "parent_region": "Cape Breton",
   "lat": 45.5,
   "lng": -61.0,
   "postal": "B1Y",
   "population_2021": 3000,
   "unified_score": 54.3,
   "verification": "Census_Verified",
   "publishable": true,
   "rank": 149,
   "batch": 8
  },
  {
   "id": "NS-0118",
   "name": "Exhibition Park",
   "slug": "exhibition-park",
   "type": "Neighborhood",
   "parent_municipality": "Halifax",
   "parent_region": "Halifax Metro",
   "lat": 44.635,
   "lng": -63.59,
   "postal": "B3H",
   "population_2021": 2000,
   "unified_score": 54.3,
   "verification": "Census_Verified",
   "publishable": true,
   "rank": 150,
   "batch": 8
  },
  {
   "id": "NS-0119",
   "name": "Westmount (Halifax)",
   "slug": "westmount-halifax",
   "type": "Neighborhood",
   "parent_municipality": "Halifax",
   "parent_region": "Halifax Metro",
   "lat": 44.65,
   "lng": -63.61,
   "postal": "B3H",
   "population_2021": 2000,
   "unified_score": 54.3,
   "verification": "Census_Verified",
   "publishable": true,
   "rank": 151,
   "batch": 8
  },
  {
   "id": "NS-0128",
   "name": "Head of St. Margarets Bay",
   "slug": "head-of-st-margarets-bay",
   "type": "Community",
   "parent_municipality": "Halifax",
   "parent_region": "Halifax Metro",
   "lat": 44.62,
   "lng": -63.84,
   "postal": "B3H",
   "population_2021": 1000,
   "unified_score": 54.3,
   "verification": "Census_Verified",
   "publishable": true,
   "rank": 152,
   "batch": 8
  },
  {
   "id": "NS-0130",
   "name": "Glen Haven",
   "slug": "glen-haven",
   "type": "Community",
   "parent_municipality": "Halifax",
   "parent_region": "Halifax Metro",
   "lat": 44.62,
   "lng": -63.86,
   "postal": "B3H",
   "population_2021": 1000,
   "unified_score": 54.3,
   "verification": "Census_Verified",
   "publishable": true,
   "rank": 153,
   "batch": 8
  },
  {
   "id": "NS-0116",
   "name": "Purcells Cove",
   "slug": "purcells-cove",
   "type": "Neighborhood",
   "parent_municipality": "Halifax",
   "parent_region": "Halifax Metro",
   "lat": 44.61,
   "lng": -63.59,
   "postal": "B3H",
   "population_2021": 2000,
   "unified_score": 54.2,
   "verification": "Census_Verified",
   "publishable": true,
   "rank": 154,
   "batch": 8
  },
  {
   "id": "NS-0117",
   "name": "Leiblin Park",
   "slug": "leiblin-park",
   "type": "Neighborhood",
   "parent_municipality": "Halifax",
   "parent_region": "Halifax Metro",
   "lat": 44.615,
   "lng": -63.62,
   "postal": "B3H",
   "population_2021": 2000,
   "unified_score": 54.2,
   "verification": "Census_Verified",
   "publishable": true,
   "rank": 155,
   "batch": 8
  },
  {
   "id": "NS-0106",
   "name": "Kingston",
   "slug": "kingston",
   "type": "Community",
   "parent_municipality": "Kings County",
   "parent_region": "Annapolis Valley",
   "lat": 44.98,
   "lng": -64.96,
   "postal": "B4N",
   "population_2021": 3200,
   "unified_score": 53.9,
   "verification": "Census_Verified",
   "publishable": true,
   "rank": 156,
   "batch": 8
  },
  {
   "id": "NS-0221",
   "name": "Shubenacadie",
   "slug": "shubenacadie",
   "type": "Community",
   "parent_municipality": "East Hants",
   "parent_region": "Central Nova Scotia",
   "lat": 45.09,
   "lng": -63.4,
   "postal": "B2N",
   "population_2021": 1200,
   "unified_score": 53.8,
   "verification": "Census_Verified",
   "publishable": true,
   "rank": 157,
   "batch": 8
  },
  {
   "id": "NS-0136",
   "name": "Membertou First Nation",
   "slug": "membertou-first-nation",
   "type": "First Nations Reserve",
   "parent_municipality": "",
   "parent_region": "Cape Breton",
   "lat": 46.12,
   "lng": -60.2,
   "postal": "B1Y",
   "population_2021": 1500,
   "unified_score": 53.7,
   "verification": "Census_Verified",
   "publishable": true,
   "rank": 158,
   "batch": 8
  },
  {
   "id": "NS-0141",
   "name": "Shannon Park",
   "slug": "shannon-park",
   "type": "Neighborhood",
   "parent_municipality": "Halifax",
   "parent_region": "Halifax Metro",
   "lat": 44.68,
   "lng": -63.57,
   "postal": "B3H",
   "population_2021": 1500,
   "unified_score": 53.7,
   "verification": "Census_Verified",
   "publishable": true,
   "rank": 159,
   "batch": 8
  },
  {
   "id": "NS-0140",
   "name": "Burnside",
   "slug": "burnside",
   "type": "Neighborhood",
   "parent_municipality": "Halifax",
   "parent_region": "Halifax Metro",
   "lat": 44.69,
   "lng": -63.57,
   "postal": "B3H",
   "population_2021": 1500,
   "unified_score": 53.6,
   "verification": "Census_Verified",
   "publishable": true,
   "rank": 160,
   "batch": 8
  },
  {
   "id": "NS-0142",
   "name": "Mount Saint Vincent",
   "slug": "mount-saint-vincent",
   "type": "Neighborhood",
   "parent_municipality": "Halifax",
   "parent_region": "Halifax Metro",
   "lat": 44.67,
   "lng": -63.625,
   "postal": "B3H",
   "population_2021": 1500,
   "unified_score": 53.6,
   "verification": "Census_Verified",
   "publishable": true,
   "rank": 161,
   "batch": 9
  },
  {
   "id": "NS-0089",
   "name": "Sipekne'katik First Nation",
   "slug": "sipekne-katik-first-nation",
   "type": "First Nations Reserve",
   "parent_municipality": "",
   "parent_region": "Central Nova Scotia",
   "lat": 45.1,
   "lng": -63.5,
   "postal": "B2N",
   "population_2021": 2725,
   "unified_score": 53.5,
   "verification": "Census_Verified",
   "publishable": true,
   "rank": 162,
   "batch": 9
  },
  {
   "id": "NS-0111",
   "name": "Liverpool",
   "slug": "liverpool",
   "type": "Community",
   "parent_municipality": "Queens",
   "parent_region": "South Shore",
   "lat": 44.0389,
   "lng": -64.7178,
   "postal": "B4V",
   "population_2021": 2653,
   "unified_score": 53.5,
   "verification": "Census_Verified",
   "publishable": true,
   "rank": 163,
   "batch": 9
  },
  {
   "id": "NS-0152",
   "name": "Admirals Cove",
   "slug": "admirals-cove",
   "type": "Neighborhood",
   "parent_municipality": "Halifax",
   "parent_region": "Halifax Metro",
   "lat": 44.72,
   "lng": -63.65,
   "postal": "B4B",
   "population_2021": 1500,
   "unified_score": 53.5,
   "verification": "Census_Verified",
   "publishable": true,
   "rank": 164,
   "batch": 9
  },
  {
   "id": "NS-0115",
   "name": "Springhill",
   "slug": "springhill",
   "type": "Community",
   "parent_municipality": "Cumberland County",
   "parent_region": "Chignecto",
   "lat": 45.65,
   "lng": -64.06,
   "postal": "B4H",
   "population_2021": 2600,
   "unified_score": 53.4,
   "verification": "Census_Verified",
   "publishable": true,
   "rank": 165,
   "batch": 9
  },
  {
   "id": "NS-0296",
   "name": "Oxford",
   "slug": "oxford",
   "type": "Town",
   "parent_municipality": "Cumberland County",
   "parent_region": "Chignecto",
   "lat": 45.7289,
   "lng": -63.8671,
   "postal": "B4H",
   "population_2021": 1076,
   "unified_score": 53.4,
   "verification": "Census_Verified",
   "publishable": true,
   "rank": 166,
   "batch": 9
  },
  {
   "id": "NS-0172",
   "name": "Tower Road",
   "slug": "tower-road",
   "type": "Neighborhood",
   "parent_municipality": "Halifax",
   "parent_region": "Halifax Metro",
   "lat": 44.638,
   "lng": -63.578,
   "postal": "B3H",
   "population_2021": 1200,
   "unified_score": 53.3,
   "verification": "Census_Verified",
   "publishable": true,
   "rank": 167,
   "batch": 9
  },
  {
   "id": "NS-0238",
   "name": "Inverness",
   "slug": "inverness",
   "type": "Community",
   "parent_municipality": "Inverness County",
   "parent_region": "Cape Breton",
   "lat": 46.2,
   "lng": -61.1,
   "postal": "B1Y",
   "population_2021": 1275,
   "unified_score": 53.3,
   "verification": "Census_Verified",
   "publishable": true,
   "rank": 168,
   "batch": 9
  },
  {
   "id": "NS-0239",
   "name": "Brookfield",
   "slug": "brookfield",
   "type": "Community",
   "parent_municipality": "Colchester County",
   "parent_region": "Central Nova Scotia",
   "lat": 45.22,
   "lng": -63.32,
   "postal": "B2N",
   "population_2021": 1200,
   "unified_score": 53.3,
   "verification": "Census_Verified",
   "publishable": true,
   "rank": 169,
   "batch": 9
  },
  {
   "id": "NS-0243",
   "name": "Hantsport",
   "slug": "hantsport",
   "type": "Community",
   "parent_municipality": "West Hants",
   "parent_region": "Annapolis Valley",
   "lat": 45.07,
   "lng": -64.17,
   "postal": "B4N",
   "population_2021": 1150,
   "unified_score": 53.3,
   "verification": "Census_Verified",
   "publishable": true,
   "rank": 170,
   "batch": 9
  },
  {
   "id": "NS-0205",
   "name": "Digby",
   "slug": "digby",
   "type": "Town",
   "parent_municipality": "Digby District",
   "parent_region": "Fundy Shore",
   "lat": 44.6217,
   "lng": -65.76,
   "postal": "B0W",
   "population_2021": 2060,
   "unified_score": 53.2,
   "verification": "Census_Verified",
   "publishable": true,
   "rank": 171,
   "batch": 9
  },
  {
   "id": "NS-0230",
   "name": "Debert",
   "slug": "debert",
   "type": "Community",
   "parent_municipality": "Colchester County",
   "parent_region": "Central Nova Scotia",
   "lat": 45.42,
   "lng": -63.48,
   "postal": "B2N",
   "population_2021": 1500,
   "unified_score": 53.2,
   "verification": "Census_Verified",
   "publishable": true,
   "rank": 172,
   "batch": 9
  },
  {
   "id": "NS-0180",
   "name": "Millview",
   "slug": "millview",
   "type": "Neighborhood",
   "parent_municipality": "Halifax",
   "parent_region": "Halifax Metro",
   "lat": 44.73,
   "lng": -63.66,
   "postal": "B4B",
   "population_2021": 1200,
   "unified_score": 53.0,
   "verification": "Census_Verified",
   "publishable": true,
   "rank": 173,
   "batch": 9
  },
  {
   "id": "NS-0113",
   "name": "Schmidtville",
   "slug": "schmidtville",
   "type": "Neighborhood",
   "parent_municipality": "Halifax",
   "parent_region": "Halifax Metro",
   "lat": 44.64,
   "lng": -63.58,
   "postal": "B3H",
   "population_2021": 1000,
   "unified_score": 52.9,
   "verification": "Census_Verified",
   "publishable": true,
   "rank": 174,
   "batch": 9
  },
  {
   "id": "NS-0251",
   "name": "Port Williams",
   "slug": "port-williams",
   "type": "Community",
   "parent_municipality": "Kings County",
   "parent_region": "Annapolis Valley",
   "lat": 45.09,
   "lng": -64.41,
   "postal": "B4N",
   "population_2021": 1200,
   "unified_score": 52.9,
   "verification": "Census_Verified",
   "publishable": true,
   "rank": 175,
   "batch": 9
  },
  {
   "id": "NS-0186",
   "name": "Mahone Bay",
   "slug": "mahone-bay",
   "type": "Town",
   "parent_municipality": "Lunenburg District",
   "parent_region": "South Shore",
   "lat": 44.45,
   "lng": -64.3833,
   "postal": "B4V",
   "population_2021": 936,
   "unified_score": 52.8,
   "verification": "Census_Verified",
   "publishable": true,
   "rank": 176,
   "batch": 9
  },
  {
   "id": "NS-0305",
   "name": "Shelburne",
   "slug": "shelburne",
   "type": "Town",
   "parent_municipality": "Shelburne District",
   "parent_region": "South Shore",
   "lat": 43.7636,
   "lng": -65.3236,
   "postal": "B4V",
   "population_2021": 1587,
   "unified_score": 52.8,
   "verification": "Census_Verified",
   "publishable": true,
   "rank": 177,
   "batch": 9
  },
  {
   "id": "NS-0125",
   "name": "Albert Bridge",
   "slug": "albert-bridge",
   "type": "Community",
   "parent_municipality": "Cape Breton",
   "parent_region": "Cape Breton",
   "lat": 46.05,
   "lng": -60.12,
   "postal": "B1Y",
   "population_2021": 974,
   "unified_score": 52.6,
   "verification": "Census_Verified",
   "publishable": true,
   "rank": 178,
   "batch": 9
  },
  {
   "id": "NS-0263",
   "name": "Parrsboro",
   "slug": "parrsboro",
   "type": "Community",
   "parent_municipality": "Cumberland County",
   "parent_region": "Chignecto",
   "lat": 45.405,
   "lng": -64.331,
   "postal": "B4H",
   "population_2021": 1220,
   "unified_score": 52.3,
   "verification": "Census_Verified",
   "publishable": true,
   "rank": 179,
   "batch": 9
  },
  {
   "id": "NS-0132",
   "name": "Waverley",
   "slug": "waverley",
   "type": "Community",
   "parent_municipality": "Halifax",
   "parent_region": "Halifax Metro",
   "lat": 44.77,
   "lng": -63.56,
   "postal": "B4B",
   "population_2021": 858,
   "unified_score": 52.2,
   "verification": "Census_Verified",
   "publishable": true,
   "rank": 180,
   "batch": 9
  },
  {
   "id": "NS-0137",
   "name": "Williamswood",
   "slug": "williamswood",
   "type": "Community",
   "parent_municipality": "Halifax",
   "parent_region": "Halifax Metro",
   "lat": 44.55,
   "lng": -63.62,
   "postal": "B3H",
   "population_2021": 800,
   "unified_score": 52.2,
   "verification": "Census_Verified",
   "publishable": true,
   "rank": 181,
   "batch": 10
  },
  {
   "id": "NS-0146",
   "name": "Sydney Forks",
   "slug": "sydney-forks",
   "type": "Community",
   "parent_municipality": "Cape Breton",
   "parent_region": "Cape Breton",
   "lat": 46.1,
   "lng": -60.25,
   "postal": "B1P",
   "population_2021": 736,
   "unified_score": 52.2,
   "verification": "Census_Verified",
   "publishable": true,
   "rank": 182,
   "batch": 10
  },
  {
   "id": "NS-0144",
   "name": "Whites Lake",
   "slug": "whites-lake",
   "type": "Community",
   "parent_municipality": "Halifax",
   "parent_region": "Halifax Metro",
   "lat": 44.57,
   "lng": -63.72,
   "postal": "B3H",
   "population_2021": 800,
   "unified_score": 52.1,
   "verification": "Census_Verified",
   "publishable": true,
   "rank": 183,
   "batch": 10
  },
  {
   "id": "NS-0145",
   "name": "Lake Loon",
   "slug": "lake-loon",
   "type": "Community",
   "parent_municipality": "Halifax",
   "parent_region": "Halifax Metro",
   "lat": 44.71,
   "lng": -63.43,
   "postal": "B4B",
   "population_2021": 800,
   "unified_score": 52.1,
   "verification": "Census_Verified",
   "publishable": true,
   "rank": 184,
   "batch": 10
  },
  {
   "id": "NS-0167",
   "name": "South Bar",
   "slug": "south-bar",
   "type": "Community",
   "parent_municipality": "Cape Breton",
   "parent_region": "Cape Breton",
   "lat": 46.15,
   "lng": -60.18,
   "postal": "B1Y",
   "population_2021": 673,
   "unified_score": 52.1,
   "verification": "Census_Verified",
   "publishable": true,
   "rank": 185,
   "batch": 10
  },
  {
   "id": "NS-0153",
   "name": "East Lawrencetown",
   "slug": "east-lawrencetown",
   "type": "Community",
   "parent_municipality": "Halifax",
   "parent_region": "Halifax Metro",
   "lat": 44.64,
   "lng": -63.36,
   "postal": "B3H",
   "population_2021": 800,
   "unified_score": 52.0,
   "verification": "Census_Verified",
   "publishable": true,
   "rank": 186,
   "batch": 10
  },
  {
   "id": "NS-0166",
   "name": "Georges River",
   "slug": "georges-river",
   "type": "Community",
   "parent_municipality": "Cape Breton",
   "parent_region": "Cape Breton",
   "lat": 46.15,
   "lng": -60.33,
   "postal": "B1Y",
   "population_2021": 711,
   "unified_score": 52.0,
   "verification": "Census_Verified",
   "publishable": true,
   "rank": 187,
   "batch": 10
  },
  {
   "id": "NS-0112",
   "name": "Millbrook First Nation",
   "slug": "millbrook-first-nation",
   "type": "First Nations Reserve",
   "parent_municipality": "",
   "parent_region": "Central Nova Scotia",
   "lat": 45.37,
   "lng": -63.26,
   "postal": "B2N",
   "population_2021": 2079,
   "unified_score": 51.9,
   "verification": "Census_Verified",
   "publishable": true,
   "rank": 188,
   "batch": 10
  },
  {
   "id": "NS-0154",
   "name": "Mineville",
   "slug": "mineville",
   "type": "Community",
   "parent_municipality": "Halifax",
   "parent_region": "Halifax Metro",
   "lat": 44.7,
   "lng": -63.35,
   "postal": "B3H",
   "population_2021": 800,
   "unified_score": 51.9,
   "verification": "Census_Verified",
   "publishable": true,
   "rank": 189,
   "batch": 10
  },
  {
   "id": "NS-0162",
   "name": "Grand Lake",
   "slug": "grand-lake",
   "type": "Community",
   "parent_municipality": "Halifax",
   "parent_region": "Halifax Metro",
   "lat": 44.84,
   "lng": -63.52,
   "postal": "B4B",
   "population_2021": 800,
   "unified_score": 51.9,
   "verification": "Census_Verified",
   "publishable": true,
   "rank": 190,
   "batch": 10
  },
  {
   "id": "NS-0160",
   "name": "Seabright",
   "slug": "seabright",
   "type": "Community",
   "parent_municipality": "Halifax",
   "parent_region": "Halifax Metro",
   "lat": 44.58,
   "lng": -63.88,
   "postal": "B3H",
   "population_2021": 800,
   "unified_score": 51.8,
   "verification": "Census_Verified",
   "publishable": true,
   "rank": 191,
   "batch": 10
  },
  {
   "id": "NS-0161",
   "name": "Boutiliers Point",
   "slug": "boutiliers-point",
   "type": "Community",
   "parent_municipality": "Halifax",
   "parent_region": "Halifax Metro",
   "lat": 44.61,
   "lng": -63.88,
   "postal": "B3H",
   "population_2021": 800,
   "unified_score": 51.8,
   "verification": "Census_Verified",
   "publishable": true,
   "rank": 192,
   "batch": 10
  },
  {
   "id": "NS-0164",
   "name": "Terence Bay",
   "slug": "terence-bay",
   "type": "Community",
   "parent_municipality": "Halifax",
   "parent_region": "Halifax Metro",
   "lat": 44.45,
   "lng": -63.72,
   "postal": "B3H",
   "population_2021": 800,
   "unified_score": 51.8,
   "verification": "Census_Verified",
   "publishable": true,
   "rank": 193,
   "batch": 10
  },
  {
   "id": "NS-0163",
   "name": "Prospect Bay",
   "slug": "prospect-bay",
   "type": "Community",
   "parent_municipality": "Halifax",
   "parent_region": "Halifax Metro",
   "lat": 44.46,
   "lng": -63.76,
   "postal": "B3H",
   "population_2021": 800,
   "unified_score": 51.7,
   "verification": "Census_Verified",
   "publishable": true,
   "rank": 194,
   "batch": 10
  },
  {
   "id": "NS-0165",
   "name": "Middle Porter's Lake",
   "slug": "middle-porter-s-lake",
   "type": "Community",
   "parent_municipality": "Halifax",
   "parent_region": "Halifax Metro",
   "lat": 44.74,
   "lng": -63.28,
   "postal": "B4B",
   "population_2021": 800,
   "unified_score": 51.7,
   "verification": "Census_Verified",
   "publishable": true,
   "rank": 195,
   "batch": 10
  },
  {
   "id": "NS-0173",
   "name": "Millville Boularderie",
   "slug": "millville-boularderie",
   "type": "Community",
   "parent_municipality": "Cape Breton",
   "parent_region": "Cape Breton",
   "lat": 46.26,
   "lng": -60.31,
   "postal": "B1Y",
   "population_2021": 691,
   "unified_score": 51.7,
   "verification": "Census_Verified",
   "publishable": true,
   "rank": 196,
   "batch": 10
  },
  {
   "id": "NS-0159",
   "name": "Musquodoboit Harbour",
   "slug": "musquodoboit-harbour",
   "type": "Community",
   "parent_municipality": "Halifax",
   "parent_region": "Halifax Metro",
   "lat": 44.77,
   "lng": -63.1,
   "postal": "B4B",
   "population_2021": 903,
   "unified_score": 51.6,
   "verification": "Census_Verified",
   "publishable": true,
   "rank": 197,
   "batch": 10
  },
  {
   "id": "NS-0170",
   "name": "Head of Chezzetcook",
   "slug": "head-of-chezzetcook",
   "type": "Community",
   "parent_municipality": "Halifax",
   "parent_region": "Halifax Metro",
   "lat": 44.74,
   "lng": -63.2,
   "postal": "B4B",
   "population_2021": 800,
   "unified_score": 51.6,
   "verification": "Census_Verified",
   "publishable": true,
   "rank": 198,
   "batch": 10
  },
  {
   "id": "NS-0183",
   "name": "Marion Bridge",
   "slug": "marion-bridge",
   "type": "Community",
   "parent_municipality": "Cape Breton",
   "parent_region": "Cape Breton",
   "lat": 46.02,
   "lng": -60.2,
   "postal": "B1Y",
   "population_2021": 617,
   "unified_score": 51.6,
   "verification": "Census_Verified",
   "publishable": true,
   "rank": 199,
   "batch": 10
  },
  {
   "id": "NS-0182",
   "name": "Donkin",
   "slug": "donkin",
   "type": "Community",
   "parent_municipality": "Cape Breton",
   "parent_region": "Cape Breton",
   "lat": 46.18,
   "lng": -59.92,
   "postal": "B1Y",
   "population_2021": 658,
   "unified_score": 51.5,
   "verification": "Census_Verified",
   "publishable": true,
   "rank": 200,
   "batch": 10
  },
  {
   "id": "NS-0190",
   "name": "Three Fathom Harbour",
   "slug": "three-fathom-harbour",
   "type": "Community",
   "parent_municipality": "Halifax",
   "parent_region": "Halifax Metro",
   "lat": 44.63,
   "lng": -63.39,
   "postal": "B3H",
   "population_2021": 600,
   "unified_score": 51.5,
   "verification": "Census_Verified",
   "publishable": true,
   "rank": 201,
   "batch": 11
  },
  {
   "id": "NS-0191",
   "name": "Lingan",
   "slug": "lingan",
   "type": "Community",
   "parent_municipality": "Cape Breton",
   "parent_region": "Cape Breton",
   "lat": 46.21,
   "lng": -60.08,
   "postal": "B1Y",
   "population_2021": 587,
   "unified_score": 51.5,
   "verification": "Census_Verified",
   "publishable": true,
   "rank": 202,
   "batch": 11
  },
  {
   "id": "NS-0210",
   "name": "Mill Creek",
   "slug": "mill-creek",
   "type": "Community",
   "parent_municipality": "Cape Breton",
   "parent_region": "Cape Breton",
   "lat": 46.12,
   "lng": -60.18,
   "postal": "B1Y",
   "population_2021": 496,
   "unified_score": 51.5,
   "verification": "Census_Verified",
   "publishable": true,
   "rank": 203,
   "batch": 11
  },
  {
   "id": "NS-0177",
   "name": "Lantz",
   "slug": "lantz",
   "type": "Community",
   "parent_municipality": "Halifax",
   "parent_region": "Halifax Metro",
   "lat": 44.97,
   "lng": -63.45,
   "postal": "B4B",
   "population_2021": 800,
   "unified_score": 51.4,
   "verification": "Census_Verified",
   "publishable": true,
   "rank": 204,
   "batch": 11
  },
  {
   "id": "NS-0189",
   "name": "Gardiner Mines",
   "slug": "gardiner-mines",
   "type": "Community",
   "parent_municipality": "Cape Breton",
   "parent_region": "Cape Breton",
   "lat": 46.22,
   "lng": -59.98,
   "postal": "B1Y",
   "population_2021": 613,
   "unified_score": 51.4,
   "verification": "Census_Verified",
   "publishable": true,
   "rank": 205,
   "batch": 11
  },
  {
   "id": "NS-0198",
   "name": "Alder Point",
   "slug": "alder-point",
   "type": "Community",
   "parent_municipality": "Cape Breton",
   "parent_region": "Cape Breton",
   "lat": 46.27,
   "lng": -60.25,
   "postal": "B1Y",
   "population_2021": 576,
   "unified_score": 51.4,
   "verification": "Census_Verified",
   "publishable": true,
   "rank": 206,
   "batch": 11
  },
  {
   "id": "NS-0199",
   "name": "Prime Brook",
   "slug": "prime-brook",
   "type": "Community",
   "parent_municipality": "Cape Breton",
   "parent_region": "Cape Breton",
   "lat": 46.25,
   "lng": -60.28,
   "postal": "B1Y",
   "population_2021": 561,
   "unified_score": 51.4,
   "verification": "Census_Verified",
   "publishable": true,
   "rank": 207,
   "batch": 11
  },
  {
   "id": "NS-0200",
   "name": "Bras d'Or",
   "slug": "bras-d-or",
   "type": "Community",
   "parent_municipality": "Cape Breton",
   "parent_region": "Cape Breton",
   "lat": 46.21,
   "lng": -60.3,
   "postal": "B1Y",
   "population_2021": 543,
   "unified_score": 51.4,
   "verification": "Census_Verified",
   "publishable": true,
   "rank": 208,
   "batch": 11
  },
  {
   "id": "NS-0176",
   "name": "Baddeck",
   "slug": "baddeck",
   "type": "Community",
   "parent_municipality": "Victoria County",
   "parent_region": "Cape Breton",
   "lat": 46.1,
   "lng": -60.75,
   "postal": "B1Y",
   "population_2021": 818,
   "unified_score": 51.3,
   "verification": "Census_Verified",
   "publishable": true,
   "rank": 209,
   "batch": 11
  },
  {
   "id": "NS-0178",
   "name": "Milford",
   "slug": "milford",
   "type": "Community",
   "parent_municipality": "East Hants",
   "parent_region": "Central Nova Scotia",
   "lat": 45.01,
   "lng": -63.47,
   "postal": "B2N",
   "population_2021": 800,
   "unified_score": 51.3,
   "verification": "Census_Verified",
   "publishable": true,
   "rank": 210,
   "batch": 11
  },
  {
   "id": "NS-0188",
   "name": "Port Morien",
   "slug": "port-morien",
   "type": "Community",
   "parent_municipality": "Cape Breton",
   "parent_region": "Cape Breton",
   "lat": 46.13,
   "lng": -59.87,
   "postal": "B1Y",
   "population_2021": 647,
   "unified_score": 51.3,
   "verification": "Census_Verified",
   "publishable": true,
   "rank": 211,
   "batch": 11
  },
  {
   "id": "NS-0196",
   "name": "Wellington",
   "slug": "wellington",
   "type": "Community",
   "parent_municipality": "Halifax",
   "parent_region": "Halifax Metro",
   "lat": 44.82,
   "lng": -63.53,
   "postal": "B4B",
   "population_2021": 600,
   "unified_score": 51.3,
   "verification": "Census_Verified",
   "publishable": true,
   "rank": 212,
   "batch": 11
  },
  {
   "id": "NS-0197",
   "name": "West Porters Lake",
   "slug": "west-porters-lake",
   "type": "Community",
   "parent_municipality": "Halifax",
   "parent_region": "Halifax Metro",
   "lat": 44.735,
   "lng": -63.32,
   "postal": "B4B",
   "population_2021": 600,
   "unified_score": 51.3,
   "verification": "Census_Verified",
   "publishable": true,
   "rank": 213,
   "batch": 11
  },
  {
   "id": "NS-0215",
   "name": "Fergusons Cove",
   "slug": "fergusons-cove",
   "type": "Community",
   "parent_municipality": "Halifax",
   "parent_region": "Halifax Metro",
   "lat": 44.58,
   "lng": -63.58,
   "postal": "B3H",
   "population_2021": 500,
   "unified_score": 51.3,
   "verification": "Census_Verified",
   "publishable": true,
   "rank": 214,
   "batch": 11
  },
  {
   "id": "NS-0216",
   "name": "Montague",
   "slug": "montague",
   "type": "Community",
   "parent_municipality": "Halifax",
   "parent_region": "Halifax Metro",
   "lat": 44.69,
   "lng": -63.5,
   "postal": "B3H",
   "population_2021": 500,
   "unified_score": 51.3,
   "verification": "Census_Verified",
   "publishable": true,
   "rank": 215,
   "batch": 11
  },
  {
   "id": "NS-0181",
   "name": "Middle Musquodoboit",
   "slug": "middle-musquodoboit",
   "type": "Community",
   "parent_municipality": "Halifax",
   "parent_region": "Halifax Metro",
   "lat": 45.03,
   "lng": -63.12,
   "postal": "B4B",
   "population_2021": 900,
   "unified_score": 51.1,
   "verification": "Census_Verified",
   "publishable": true,
   "rank": 216,
   "batch": 11
  },
  {
   "id": "NS-0204",
   "name": "Glen Margaret",
   "slug": "glen-margaret",
   "type": "Community",
   "parent_municipality": "Halifax",
   "parent_region": "Halifax Metro",
   "lat": 44.57,
   "lng": -63.9,
   "postal": "B3H",
   "population_2021": 600,
   "unified_score": 51.1,
   "verification": "Census_Verified",
   "publishable": true,
   "rank": 217,
   "batch": 11
  },
  {
   "id": "NS-0214",
   "name": "Little Bras d'Or",
   "slug": "little-bras-d-or",
   "type": "Community",
   "parent_municipality": "Cape Breton",
   "parent_region": "Cape Breton",
   "lat": 46.28,
   "lng": -60.27,
   "postal": "B1Y",
   "population_2021": 503,
   "unified_score": 51.1,
   "verification": "Census_Verified",
   "publishable": true,
   "rank": 218,
   "batch": 11
  },
  {
   "id": "NS-0255",
   "name": "Mulgrave",
   "slug": "mulgrave",
   "type": "Town",
   "parent_municipality": "Guysborough District",
   "parent_region": "Eastern Shore",
   "lat": 45.6094,
   "lng": -61.3656,
   "postal": "B0J",
   "population_2021": 728,
   "unified_score": 51.1,
   "verification": "Census_Verified",
   "publishable": true,
   "rank": 219,
   "batch": 11
  },
  {
   "id": "NS-0195",
   "name": "Hubbards",
   "slug": "hubbards",
   "type": "Community",
   "parent_municipality": "Halifax",
   "parent_region": "Halifax Metro",
   "lat": 44.54,
   "lng": -64.06,
   "postal": "B3H",
   "population_2021": 700,
   "unified_score": 51.0,
   "verification": "Census_Verified",
   "publishable": true,
   "rank": 220,
   "batch": 11
  },
  {
   "id": "NS-0219",
   "name": "Shad Bay",
   "slug": "shad-bay",
   "type": "Community",
   "parent_municipality": "Halifax",
   "parent_region": "Halifax Metro",
   "lat": 44.54,
   "lng": -63.75,
   "postal": "B3H",
   "population_2021": 500,
   "unified_score": 51.0,
   "verification": "Census_Verified",
   "publishable": true,
   "rank": 221,
   "batch": 12
  },
  {
   "id": "NS-0224",
   "name": "Lingan Road",
   "slug": "lingan-road",
   "type": "Community",
   "parent_municipality": "Cape Breton",
   "parent_region": "Cape Breton",
   "lat": 46.2,
   "lng": -60.09,
   "postal": "B1Y",
   "population_2021": 440,
   "unified_score": 51.0,
   "verification": "Census_Verified",
   "publishable": true,
   "rank": 222,
   "batch": 12
  },
  {
   "id": "NS-0229",
   "name": "Point Edward",
   "slug": "point-edward",
   "type": "Community",
   "parent_municipality": "Cape Breton",
   "parent_region": "Cape Breton",
   "lat": 46.16,
   "lng": -60.22,
   "postal": "B1Y",
   "population_2021": 396,
   "unified_score": 51.0,
   "verification": "Census_Verified",
   "publishable": true,
   "rank": 223,
   "batch": 12
  },
  {
   "id": "NS-0187",
   "name": "Ingonish",
   "slug": "ingonish",
   "type": "Community",
   "parent_municipality": "Victoria County",
   "parent_region": "Cape Breton",
   "lat": 46.67,
   "lng": -60.37,
   "postal": "B1Y",
   "population_2021": 900,
   "unified_score": 50.9,
   "verification": "Census_Verified",
   "publishable": true,
   "rank": 224,
   "batch": 12
  },
  {
   "id": "NS-0207",
   "name": "East Chezzetcook",
   "slug": "east-chezzetcook",
   "type": "Community",
   "parent_municipality": "Halifax",
   "parent_region": "Halifax Metro",
   "lat": 44.75,
   "lng": -63.18,
   "postal": "B4B",
   "population_2021": 600,
   "unified_score": 50.9,
   "verification": "Census_Verified",
   "publishable": true,
   "rank": 225,
   "batch": 12
  },
  {
   "id": "NS-0228",
   "name": "Balls Creek",
   "slug": "balls-creek",
   "type": "Community",
   "parent_municipality": "Cape Breton",
   "parent_region": "Cape Breton",
   "lat": 46.06,
   "lng": -60.3,
   "postal": "B1Y",
   "population_2021": 427,
   "unified_score": 50.9,
   "verification": "Census_Verified",
   "publishable": true,
   "rank": 226,
   "batch": 12
  },
  {
   "id": "NS-0223",
   "name": "Oakfield",
   "slug": "oakfield",
   "type": "Community",
   "parent_municipality": "Halifax",
   "parent_region": "Halifax Metro",
   "lat": 44.87,
   "lng": -63.5,
   "postal": "B4B",
   "population_2021": 500,
   "unified_score": 50.8,
   "verification": "Census_Verified",
   "publishable": true,
   "rank": 227,
   "batch": 12
  },
  {
   "id": "NS-0227",
   "name": "Hacketts Cove",
   "slug": "hacketts-cove",
   "type": "Community",
   "parent_municipality": "Halifax",
   "parent_region": "Halifax Metro",
   "lat": 44.55,
   "lng": -63.92,
   "postal": "B3H",
   "population_2021": 500,
   "unified_score": 50.7,
   "verification": "Census_Verified",
   "publishable": true,
   "rank": 228,
   "batch": 12
  },
  {
   "id": "NS-0241",
   "name": "Kinsac",
   "slug": "kinsac",
   "type": "Community",
   "parent_municipality": "Halifax",
   "parent_region": "Halifax Metro",
   "lat": 44.76,
   "lng": -63.58,
   "postal": "B4B",
   "population_2021": 400,
   "unified_score": 50.7,
   "verification": "Census_Verified",
   "publishable": true,
   "rank": 229,
   "batch": 12
  },
  {
   "id": "NS-0244",
   "name": "Ketch Harbour",
   "slug": "ketch-harbour",
   "type": "Community",
   "parent_municipality": "Halifax",
   "parent_region": "Halifax Metro",
   "lat": 44.49,
   "lng": -63.56,
   "postal": "B3H",
   "population_2021": 400,
   "unified_score": 50.6,
   "verification": "Census_Verified",
   "publishable": true,
   "rank": 230,
   "batch": 12
  },
  {
   "id": "NS-0245",
   "name": "Seaforth",
   "slug": "seaforth",
   "type": "Community",
   "parent_municipality": "Halifax",
   "parent_region": "Halifax Metro",
   "lat": 44.66,
   "lng": -63.35,
   "postal": "B3H",
   "population_2021": 400,
   "unified_score": 50.6,
   "verification": "Census_Verified",
   "publishable": true,
   "rank": 231,
   "batch": 12
  },
  {
   "id": "NS-0246",
   "name": "Victoria Mines",
   "slug": "victoria-mines",
   "type": "Community",
   "parent_municipality": "Cape Breton",
   "parent_region": "Cape Breton",
   "lat": 46.22,
   "lng": -60.06,
   "postal": "B1Y",
   "population_2021": 389,
   "unified_score": 50.6,
   "verification": "Census_Verified",
   "publishable": true,
   "rank": 232,
   "batch": 12
  },
  {
   "id": "NS-0131",
   "name": "Barrington South",
   "slug": "barrington-south",
   "type": "Neighborhood",
   "parent_municipality": "Halifax",
   "parent_region": "Halifax Metro",
   "lat": 44.635,
   "lng": -63.572,
   "postal": "B3H",
   "population_2021": 800,
   "unified_score": 50.5,
   "verification": "Census_Verified",
   "publishable": true,
   "rank": 233,
   "batch": 12
  },
  {
   "id": "NS-0235",
   "name": "Black Point",
   "slug": "black-point",
   "type": "Community",
   "parent_municipality": "Halifax",
   "parent_region": "Halifax Metro",
   "lat": 44.57,
   "lng": -64.0,
   "postal": "B3H",
   "population_2021": 500,
   "unified_score": 50.5,
   "verification": "Census_Verified",
   "publishable": true,
   "rank": 234,
   "batch": 12
  },
  {
   "id": "NS-0236",
   "name": "Gaetz Brook",
   "slug": "gaetz-brook",
   "type": "Community",
   "parent_municipality": "Halifax",
   "parent_region": "Halifax Metro",
   "lat": 44.75,
   "lng": -63.16,
   "postal": "B4B",
   "population_2021": 500,
   "unified_score": 50.5,
   "verification": "Census_Verified",
   "publishable": true,
   "rank": 235,
   "batch": 12
  },
  {
   "id": "NS-0258",
   "name": "Northside East Bay",
   "slug": "northside-east-bay",
   "type": "Community",
   "parent_municipality": "Cape Breton",
   "parent_region": "Cape Breton",
   "lat": 46.08,
   "lng": -60.32,
   "postal": "B1Y",
   "population_2021": 327,
   "unified_score": 50.4,
   "verification": "Census_Verified",
   "publishable": true,
   "rank": 236,
   "batch": 12
  },
  {
   "id": "NS-0138",
   "name": "Princes Lodge",
   "slug": "princes-lodge",
   "type": "Neighborhood",
   "parent_municipality": "Halifax",
   "parent_region": "Halifax Metro",
   "lat": 44.71,
   "lng": -63.64,
   "postal": "B4B",
   "population_2021": 800,
   "unified_score": 50.3,
   "verification": "Census_Verified",
   "publishable": true,
   "rank": 237,
   "batch": 12
  },
  {
   "id": "NS-0218",
   "name": "Whycocomagh",
   "slug": "whycocomagh",
   "type": "Community",
   "parent_municipality": "Inverness County",
   "parent_region": "Cape Breton",
   "lat": 45.97,
   "lng": -61.12,
   "postal": "B1Y",
   "population_2021": 800,
   "unified_score": 50.3,
   "verification": "Census_Verified",
   "publishable": true,
   "rank": 238,
   "batch": 12
  },
  {
   "id": "NS-0226",
   "name": "Three Mile Plains",
   "slug": "three-mile-plains",
   "type": "Community",
   "parent_municipality": "West Hants",
   "parent_region": "Annapolis Valley",
   "lat": 44.97,
   "lng": -64.11,
   "postal": "B4N",
   "population_2021": 600,
   "unified_score": 50.3,
   "verification": "Census_Verified",
   "publishable": true,
   "rank": 239,
   "batch": 12
  },
  {
   "id": "NS-0253",
   "name": "Ingramport",
   "slug": "ingramport",
   "type": "Community",
   "parent_municipality": "Halifax",
   "parent_region": "Halifax Metro",
   "lat": 44.6,
   "lng": -63.9,
   "postal": "B3H",
   "population_2021": 400,
   "unified_score": 50.3,
   "verification": "Census_Verified",
   "publishable": true,
   "rank": 240,
   "batch": 12
  },
  {
   "id": "NS-0254",
   "name": "East Dover",
   "slug": "east-dover",
   "type": "Community",
   "parent_municipality": "Halifax",
   "parent_region": "Halifax Metro",
   "lat": 44.5,
   "lng": -63.82,
   "postal": "B3H",
   "population_2021": 400,
   "unified_score": 50.3,
   "verification": "Census_Verified",
   "publishable": true,
   "rank": 241,
   "batch": 13
  },
  {
   "id": "NS-0260",
   "name": "Upper North Sydney",
   "slug": "upper-north-sydney",
   "type": "Community",
   "parent_municipality": "Cape Breton",
   "parent_region": "Cape Breton",
   "lat": 46.23,
   "lng": -60.26,
   "postal": "B1P",
   "population_2021": 313,
   "unified_score": 50.3,
   "verification": "Census_Verified",
   "publishable": true,
   "rank": 242,
   "batch": 13
  },
  {
   "id": "NS-0257",
   "name": "Indian Harbour",
   "slug": "indian-harbour",
   "type": "Community",
   "parent_municipality": "Halifax",
   "parent_region": "Halifax Metro",
   "lat": 44.53,
   "lng": -63.94,
   "postal": "B3H",
   "population_2021": 400,
   "unified_score": 50.2,
   "verification": "Census_Verified",
   "publishable": true,
   "rank": 243,
   "batch": 13
  },
  {
   "id": "NS-0259",
   "name": "Birch Grove",
   "slug": "birch-grove",
   "type": "Community",
   "parent_municipality": "Cape Breton",
   "parent_region": "Cape Breton",
   "lat": 46.2,
   "lng": -60.0,
   "postal": "B1Y",
   "population_2021": 334,
   "unified_score": 50.2,
   "verification": "Census_Verified",
   "publishable": true,
   "rank": 244,
   "batch": 13
  },
  {
   "id": "NS-0234",
   "name": "Western Shore",
   "slug": "western-shore",
   "type": "Community",
   "parent_municipality": "Chester",
   "parent_region": "South Shore",
   "lat": 44.48,
   "lng": -64.32,
   "postal": "B4V",
   "population_2021": 600,
   "unified_score": 50.1,
   "verification": "Census_Verified",
   "publishable": true,
   "rank": 245,
   "batch": 13
  },
  {
   "id": "NS-0265",
   "name": "Portuguese Cove",
   "slug": "portuguese-cove",
   "type": "Community",
   "parent_municipality": "Halifax",
   "parent_region": "Halifax Metro",
   "lat": 44.51,
   "lng": -63.56,
   "postal": "B3H",
   "population_2021": 300,
   "unified_score": 50.1,
   "verification": "Census_Verified",
   "publishable": true,
   "rank": 246,
   "batch": 13
  },
  {
   "id": "NS-0272",
   "name": "Little Pond",
   "slug": "little-pond",
   "type": "Community",
   "parent_municipality": "Cape Breton",
   "parent_region": "Cape Breton",
   "lat": 46.06,
   "lng": -60.25,
   "postal": "B1Y",
   "population_2021": 273,
   "unified_score": 50.1,
   "verification": "Census_Verified",
   "publishable": true,
   "rank": 247,
   "batch": 13
  },
  {
   "id": "NS-0222",
   "name": "Lower Truro",
   "slug": "lower-truro",
   "type": "Community",
   "parent_municipality": "Colchester County",
   "parent_region": "Central Nova Scotia",
   "lat": 45.35,
   "lng": -63.25,
   "postal": "B2N",
   "population_2021": 800,
   "unified_score": 50.0,
   "verification": "Census_Verified",
   "publishable": true,
   "rank": 248,
   "batch": 13
  },
  {
   "id": "NS-0271",
   "name": "Edwardsville",
   "slug": "edwardsville",
   "type": "Community",
   "parent_municipality": "Cape Breton",
   "parent_region": "Cape Breton",
   "lat": 46.1,
   "lng": -60.35,
   "postal": "B1Y",
   "population_2021": 281,
   "unified_score": 50.0,
   "verification": "Census_Verified",
   "publishable": true,
   "rank": 249,
   "batch": 13
  },
  {
   "id": "NS-0225",
   "name": "Canning",
   "slug": "canning",
   "type": "Community",
   "parent_municipality": "Kings County",
   "parent_region": "Annapolis Valley",
   "lat": 45.17,
   "lng": -64.38,
   "postal": "B4N",
   "population_2021": 776,
   "unified_score": 49.9,
   "verification": "Census_Verified",
   "publishable": false,
   "rank": 250,
   "batch": null
  },
  {
   "id": "NS-0267",
   "name": "Sambro Head",
   "slug": "sambro-head",
   "type": "Community",
   "parent_municipality": "Halifax",
   "parent_region": "Halifax Metro",
   "lat": 44.47,
   "lng": -63.59,
   "postal": "B3H",
   "population_2021": 300,
   "unified_score": 49.9,
   "verification": "Census_Verified",
   "publishable": false,
   "rank": 251,
   "batch": null
  },
  {
   "id": "NS-0268",
   "name": "Bayside",
   "slug": "bayside",
   "type": "Community",
   "parent_municipality": "Halifax",
   "parent_region": "Halifax Metro",
   "lat": 44.52,
   "lng": -63.77,
   "postal": "B3H",
   "population_2021": 300,
   "unified_score": 49.9,
   "verification": "Census_Verified",
   "publishable": false,
   "rank": 252,
   "batch": null
  },
  {
   "id": "NS-0269",
   "name": "Grand Desert",
   "slug": "grand-desert",
   "type": "Community",
   "parent_municipality": "Halifax",
   "parent_region": "Halifax Metro",
   "lat": 44.68,
   "lng": -63.32,
   "postal": "B3H",
   "population_2021": 300,
   "unified_score": 49.9,
   "verification": "Census_Verified",
   "publishable": false,
   "rank": 253,
   "batch": null
  },
  {
   "id": "NS-0270",
   "name": "Big Bras d'Or",
   "slug": "big-bras-d-or",
   "type": "Community",
   "parent_municipality": "Victoria County",
   "parent_region": "Cape Breton",
   "lat": 46.3,
   "lng": -60.35,
   "postal": "B1Y",
   "population_2021": 300,
   "unified_score": 49.9,
   "verification": "Census_Verified",
   "publishable": false,
   "rank": 254,
   "batch": null
  },
  {
   "id": "NS-0279",
   "name": "Groves Point",
   "slug": "groves-point",
   "type": "Community",
   "parent_municipality": "Cape Breton",
   "parent_region": "Cape Breton",
   "lat": 46.07,
   "lng": -60.37,
   "postal": "B1Y",
   "population_2021": 271,
   "unified_score": 49.9,
   "verification": "Census_Verified",
   "publishable": false,
   "rank": 255,
   "batch": null
  },
  {
   "id": "NS-0280",
   "name": "Blacketts Lake",
   "slug": "blacketts-lake",
   "type": "Community",
   "parent_municipality": "Cape Breton",
   "parent_region": "Cape Breton",
   "lat": 46.05,
   "lng": -60.35,
   "postal": "B1Y",
   "population_2021": 270,
   "unified_score": 49.9,
   "verification": "Census_Verified",
   "publishable": false,
   "rank": 256,
   "batch": null
  },
  {
   "id": "NS-0233",
   "name": "Sheet Harbour",
   "slug": "sheet-harbour",
   "type": "Community",
   "parent_municipality": "Halifax",
   "parent_region": "Halifax Metro",
   "lat": 44.93,
   "lng": -62.51,
   "postal": "B4B",
   "population_2021": 775,
   "unified_score": 49.8,
   "verification": "Census_Verified",
   "publishable": false,
   "rank": 257,
   "batch": null
  },
  {
   "id": "NS-0240",
   "name": "St. Peters",
   "slug": "st-peters",
   "type": "Community",
   "parent_municipality": "Richmond County",
   "parent_region": "Cape Breton",
   "lat": 45.65,
   "lng": -60.87,
   "postal": "B1Y",
   "population_2021": 650,
   "unified_score": 49.8,
   "verification": "Census_Verified",
   "publishable": false,
   "rank": 258,
   "batch": null
  },
  {
   "id": "NS-0256",
   "name": "Chester Basin",
   "slug": "chester-basin",
   "type": "Community",
   "parent_municipality": "Chester",
   "parent_region": "South Shore",
   "lat": 44.52,
   "lng": -64.29,
   "postal": "B4V",
   "population_2021": 500,
   "unified_score": 49.8,
   "verification": "Census_Verified",
   "publishable": false,
   "rank": 259,
   "batch": null
  },