{
  "province": "Prince Edward Island",
  "mode": "B (enumerated from open data — no vendor spreadsheet)",
  "generated": "2026-07-12",
  "authoritativeSource": "NRCan Canadian Geographical Names Database (CGN) file cgn_pe_csv_eng — OGL-Canada; populations StatCan 2021 Table 98-10-0002",
  "totalNamedFeaturesInCGN": 1871,
  "populatedPlacesInCGN": 649,
  "populatedPlaceBreakdown": {
    "CITY": 2,
    "TOWN": 11,
    "VILG": 71,
    "UNP": 564
  },
  "nonPlaceFeaturesExcluded": {
    "note": "not location pages",
    "waterFeatures": 640,
    "terrainFeatures": 424,
    "administrativeAreas": 130
  },
  "coverage": {
    "intendedPopulatedPlaces": 649,
    "builtPages": 67,
    "builtFromCGNPlaces": 86,
    "charlottetownNeighbourhoodsAdded": 7,
    "deferred": 563,
    "identity": "649 CGN populated places = 86 matched-built + 563 deferred; +7 Charlottetown neighbourhoods = 67 pages"
  },
  "deferredByReason": {
    "unincorporated locality / dispersed place-name": 532,
    "incorporated/village name without a distinct StatCan 2021 population record": 26,
    "incorporated village but sub-100 population": 3,
    "incorporated village below build tier / covered by parent-community context": 2
  },
  "regions": [
    {
      "slug": "queens-county",
      "name": "Queens County"
    },
    {
      "slug": "prince-county",
      "name": "Prince County"
    },
    {
      "slug": "kings-county",
      "name": "Kings County"
    }
  ],
  "builtPages": [
    {
      "slug": "charlottetown",
      "name": "Charlottetown",
      "region": "queens-county",
      "tier": 1,
      "lat": 46.2346,
      "lng": -63.1256
    },
    {
      "slug": "stratford",
      "name": "Stratford",
      "region": "queens-county",
      "tier": 1,
      "lat": 46.2179,
      "lng": -63.0795
    },
    {
      "slug": "cornwall",
      "name": "Cornwall",
      "region": "queens-county",
      "tier": 1,
      "lat": 46.2265,
      "lng": -63.2181
    },
    {
      "slug": "new-glasgow",
      "name": "New Glasgow",
      "region": "queens-county",
      "tier": 2,
      "lat": 46.4168,
      "lng": -63.3487
    },
    {
      "slug": "north-shore",
      "name": "North Shore",
      "region": "queens-county",
      "tier": 2,
      "lat": 46.3834,
      "lng": -63.1154
    },
    {
      "slug": "west-river",
      "name": "West River",
      "region": "queens-county",
      "tier": 2,
      "lat": 46.1668,
      "lng": -63.2987
    },
    {
      "slug": "vernon-river",
      "name": "Vernon River",
      "region": "queens-county",
      "tier": 2,
      "lat": 46.2001,
      "lng": -62.832
    },
    {
      "slug": "belfast",
      "name": "Belfast",
      "region": "queens-county",
      "tier": 2,
      "lat": 46.0668,
      "lng": -62.882
    },
    {
      "slug": "new-london",
      "name": "New London",
      "region": "queens-county",
      "tier": 2,
      "lat": 46.4668,
      "lng": -63.5154
    },
    {
      "slug": "miltonvale-park",
      "name": "Miltonvale Park",
      "region": "queens-county",
      "tier": 2,
      "lat": 46.3168,
      "lng": -63.2154
    },
    {
      "slug": "brackley",
      "name": "Brackley",
      "region": "queens-county",
      "tier": 3,
      "lat": 46.3168,
      "lng": -63.1487
    },
    {
      "slug": "clyde-river",
      "name": "Clyde River",
      "region": "queens-county",
      "tier": 3,
      "lat": 46.2168,
      "lng": -63.2654
    },
    {
      "slug": "hunter-river",
      "name": "Hunter River",
      "region": "queens-county",
      "tier": 3,
      "lat": 46.3501,
      "lng": -63.3487
    },
    {
      "slug": "north-rustico",
      "name": "North Rustico",
      "region": "queens-county",
      "tier": 2,
      "lat": 46.4501,
      "lng": -63.3154
    },
    {
      "slug": "cavendish",
      "name": "Cavendish",
      "region": "queens-county",
      "tier": 3,
      "lat": 46.4807,
      "lng": -63.3909
    },
    {
      "slug": "crapaud",
      "name": "Crapaud",
      "region": "queens-county",
      "tier": 3,
      "lat": 46.2334,
      "lng": -63.4987
    },
    {
      "slug": "victoria",
      "name": "Victoria",
      "region": "queens-county",
      "tier": 3,
      "lat": 46.2168,
      "lng": -63.482
    },
    {
      "slug": "downtown-charlottetown",
      "name": "Downtown Charlottetown",
      "region": "queens-county",
      "tier": 3,
      "lat": 46.2325,
      "lng": -63.1273
    },
    {
      "slug": "sherwood",
      "name": "Sherwood",
      "region": "queens-county",
      "tier": 3,
      "lat": 46.2682,
      "lng": -63.1284
    },
    {
      "slug": "west-royalty",
      "name": "West Royalty",
      "region": "queens-county",
      "tier": 3,
      "lat": 46.2584,
      "lng": -63.1626
    },
    {
      "slug": "east-royalty",
      "name": "East Royalty",
      "region": "queens-county",
      "tier": 3,
      "lat": 46.2779,
      "lng": -63.1023
    },
    {
      "slug": "spring-park",
      "name": "Spring Park",
      "region": "queens-county",
      "tier": 3,
      "lat": 46.2496,
      "lng": -63.144
    },
    {
      "slug": "brighton",
      "name": "Brighton",
      "region": "queens-county",
      "tier": 3,
      "lat": 46.2354,
      "lng": -63.144
    },
    {
      "slug": "parkdale",
      "name": "Parkdale",
      "region": "queens-county",
      "tier": 3,
      "lat": 46.252,
      "lng": -63.1181
    },
    {
      "slug": "summerside",
      "name": "Summerside",
      "region": "prince-county",
      "tier": 1,
      "lat": 46.3912,
      "lng": -63.7887
    },
    {
      "slug": "kensington",
      "name": "Kensington",
      "region": "prince-county",
      "tier": 2,
      "lat": 46.4334,
      "lng": -63.6487
    },
    {
      "slug": "borden-carleton",
      "name": "Borden-Carleton",
      "region": "prince-county",
      "tier": 2,
      "lat": 46.2618,
      "lng": -63.6726
    },
    {
      "slug": "kinkora",
      "name": "Kinkora",
      "region": "prince-county",
      "tier": 2,
      "lat": 46.3168,
      "lng": -63.5987
    },
    {
      "slug": "miscouche",
      "name": "Miscouche",
      "region": "prince-county",
      "tier": 2,
      "lat": 46.4334,
      "lng": -63.8654
    },
    {
      "slug": "wellington",
      "name": "Wellington",
      "region": "prince-county",
      "tier": 2,
      "lat": 46.4501,
      "lng": -63.9987
    },
    {
      "slug": "abram-village",
      "name": "Abram-Village",
      "region": "prince-county",
      "tier": 3,
      "lat": 46.4501,
      "lng": -64.082
    },
    {
      "slug": "linkletter",
      "name": "Linkletter",
      "region": "prince-county",
      "tier": 3,
      "lat": 46.4168,
      "lng": -63.832
    },
    {
      "slug": "malpeque-bay",
      "name": "Malpeque Bay",
      "region": "prince-county",
      "tier": 2,
      "lat": 46.5168,
      "lng": -63.6487
    },
    {
      "slug": "tyne-valley",
      "name": "Tyne Valley",
      "region": "prince-county",
      "tier": 3,
      "lat": 46.5834,
      "lng": -63.932
    },
    {
      "slug": "alberton",
      "name": "Alberton",
      "region": "prince-county",
      "tier": 2,
      "lat": 46.8168,
      "lng": -64.0654
    },
    {
      "slug": "oleary",
      "name": "O'Leary",
      "region": "prince-county",
      "tier": 2,
      "lat": 46.7168,
      "lng": -64.232
    },
    {
      "slug": "tignish",
      "name": "Tignish",
      "region": "prince-county",
      "tier": 2,
      "lat": 46.9501,
      "lng": -64.032
    },
    {
      "slug": "miminegash",
      "name": "Miminegash",
      "region": "prince-county",
      "tier": 3,
      "lat": 46.8803,
      "lng": -64.2282
    },
    {
      "slug": "three-rivers",
      "name": "Three Rivers",
      "region": "kings-county",
      "tier": 1,
      "lat": 46.1845,
      "lng": -62.5679
    },
    {
      "slug": "montague",
      "name": "Montague",
      "region": "kings-county",
      "tier": 3,
      "lat": 46.1668,
      "lng": -62.6487
    },
    {
      "slug": "georgetown",
      "name": "Georgetown",
      "region": "kings-county",
      "tier": 3,
      "lat": 46.1834,
      "lng": -62.532
    },
    {
      "slug": "souris",
      "name": "Souris",
      "region": "kings-county",
      "tier": 2,
      "lat": 46.3501,
      "lng": -62.2486
    },
    {
      "slug": "morell",
      "name": "Morell",
      "region": "kings-county",
      "tier": 2,
      "lat": 46.4168,
      "lng": -62.6987
    },
    {
      "slug": "st-peters-bay",
      "name": "St. Peters Bay",
      "region": "kings-county",
      "tier": 3,
      "lat": 46.4168,
      "lng": -62.582
    },
    {
      "slug": "murray-harbour",
      "name": "Murray Harbour",
      "region": "kings-county",
      "tier": 3,
      "lat": 46.0001,
      "lng": -62.5153
    },
    {
      "slug": "murray-river",
      "name": "Murray River",
      "region": "kings-county",
      "tier": 3,
      "lat": 46.017,
      "lng": -62.616
    },
    {
      "slug": "cardigan",
      "name": "Cardigan",
      "region": "kings-county",
      "tier": 3,
      "lat": 46.233,
      "lng": -62.618
    },
    {
      "slug": "central-kings",
      "name": "Central Kings",
      "region": "kings-county",
      "tier": 3,
      "lat": 46.324,
      "lng": -62.494
    },
    {
      "slug": "eastern-kings",
      "name": "Eastern Kings",
      "region": "kings-county",
      "tier": 3,
      "lat": 46.435,
      "lng": -62.116
    },
    {
      "slug": "souris-west",
      "name": "Souris West",
      "region": "kings-county",
      "tier": 3,
      "lat": 46.359,
      "lng": -62.283
    },
    {
      "slug": "annandale-little-pond-howe-bay",
      "name": "Annandale-Little Pond-Howe Bay",
      "region": "kings-county",
      "tier": 3,
      "lat": 46.29,
      "lng": -62.413
    },
    {
      "slug": "mount-stewart",
      "name": "Mount Stewart",
      "region": "queens-county",
      "tier": 3,
      "lat": 46.368,
      "lng": -62.875
    },
    {
      "slug": "kingston",
      "name": "Kingston",
      "region": "queens-county",
      "tier": 3,
      "lat": 46.264,
      "lng": -63.328
    },
    {
      "slug": "hampshire",
      "name": "Hampshire",
      "region": "queens-county",
      "tier": 3,
      "lat": 46.287,
      "lng": -63.273
    },
    {
      "slug": "north-wiltshire",
      "name": "North Wiltshire",
      "region": "queens-county",
      "tier": 3,
      "lat": 46.298,
      "lng": -63.324
    },
    {
      "slug": "breadalbane",
      "name": "Breadalbane",
      "region": "queens-county",
      "tier": 3,
      "lat": 46.357,
      "lng": -63.502
    },
    {
      "slug": "warren-grove",
      "name": "Warren Grove",
      "region": "queens-county",
      "tier": 3,
      "lat": 46.273,
      "lng": -63.221
    },
    {
      "slug": "york",
      "name": "York",
      "region": "queens-county",
      "tier": 3,
      "lat": 46.316,
      "lng": -63.098
    },
    {
      "slug": "union-road",
      "name": "Union Road",
      "region": "queens-county",
      "tier": 3,
      "lat": 46.324,
      "lng": -63.132
    },
    {
      "slug": "alexandra",
      "name": "Alexandra",
      "region": "queens-county",
      "tier": 3,
      "lat": 46.196,
      "lng": -63.032
    },
    {
      "slug": "hazelbrook",
      "name": "Hazelbrook",
      "region": "queens-county",
      "tier": 3,
      "lat": 46.222,
      "lng": -63
    },
    {
      "slug": "bedeque",
      "name": "Bedeque and Area",
      "region": "prince-county",
      "tier": 3,
      "lat": 46.34,
      "lng": -63.711
    },
    {
      "slug": "sherbrooke",
      "name": "Sherbrooke",
      "region": "prince-county",
      "tier": 3,
      "lat": 46.425,
      "lng": -63.781
    },
    {
      "slug": "st-nicholas",
      "name": "St. Nicholas",
      "region": "prince-county",
      "tier": 3,
      "lat": 46.419,
      "lng": -63.955
    },
    {
      "slug": "greenmount-montrose",
      "name": "Greenmount-Montrose",
      "region": "prince-county",
      "tier": 3,
      "lat": 46.867,
      "lng": -64.033
    },
    {
      "slug": "st-felix",
      "name": "St. Felix",
      "region": "prince-county",
      "tier": 3,
      "lat": 46.927,
      "lng": -64.023
    },
    {
      "slug": "northport",
      "name": "Northport",
      "region": "prince-county",
      "tier": 3,
      "lat": 46.796,
      "lng": -64.064
    }
  ],
  "cgnEnumeration": [
    {
      "name": "48 Road",
      "code": "UNP",
      "county": "Kings County",
      "lat": 46.255711,
      "lng": -62.714472,
      "pop": null,
      "score": 34,
      "status": "DEFERRED"
    },
    {
      "name": "Abney",
      "code": "UNP",
      "county": "Kings County",
      "lat": 45.99428,
      "lng": -62.569733,
      "pop": null,
      "score": 33.5,
      "status": "DEFERRED"
    },
    {
      "name": "Abram-Village",
      "code": "VILG",
      "county": "Prince County",
      "lat": 46.45,
      "lng": -64.083333,
      "pop": 340,
      "score": 50.1,
      "status": "BUILT"
    },
    {
      "name": "Afton",
      "code": "VILG",
      "county": "Queens County",
      "lat": 46.17015,
      "lng": -63.20324,
      "pop": null,
      "score": 36.7,
      "status": "DEFERRED"
    },
    {
      "name": "Afton Road",
      "code": "UNP",
      "county": "Queens County",
      "lat": 46.378441,
      "lng": -62.925412,
      "pop": null,
      "score": 34.3,
      "status": "DEFERRED"
    },
    {
      "name": "Alaska",
      "code": "UNP",
      "county": "Prince County",
      "lat": 46.616981,
      "lng": -64.108677,
      "pop": null,
      "score": 33.9,
      "status": "DEFERRED"
    },
    {
      "name": "Albany",
      "code": "UNP",
      "county": "Prince County",
      "lat": 46.286052,
      "lng": -63.643834,
      "pop": null,
      "score": 34.5,
      "status": "DEFERRED"
    },
    {
      "name": "Albany Corner",
      "code": "UNP",
      "county": "Prince County",
      "lat": 46.27973,
      "lng": -63.625043,
      "pop": null,
      "score": 34.5,
      "status": "DEFERRED"
    },
    {
      "name": "Alberry Plains",
      "code": "UNP",
      "county": "Queens County",
      "lat": 46.213237,
      "lng": -62.792401,
      "pop": null,
      "score": 34.2,
      "status": "DEFERRED"
    },
    {
      "name": "Alberton",
      "code": "TOWN",
      "county": "Prince County",
      "lat": 46.812804,
      "lng": -64.065297,
      "pop": 2230,
      "score": 57,
      "status": "BUILT"
    },
    {
      "name": "Alberton South",
      "code": "UNP",
      "county": "Prince County",
      "lat": 46.797222,
      "lng": -64.077778,
      "pop": null,
      "score": 33.5,
      "status": "DEFERRED"
    },
    {
      "name": "Albion",
      "code": "UNP",
      "county": "Kings County",
      "lat": 46.131422,
      "lng": -62.554517,
      "pop": null,
      "score": 33.6,
      "status": "DEFERRED"
    },
    {
      "name": "Albion Cross",
      "code": "UNP",
      "county": "Kings County",
      "lat": 46.335771,
      "lng": -62.486919,
      "pop": null,
      "score": 33.5,
      "status": "DEFERRED"
    },
    {
      "name": "Alexandra",
      "code": "UNP",
      "county": "Queens County",
      "lat": 46.19591,
      "lng": -63.019479,
      "pop": 252,
      "score": 47.9,
      "status": "BUILT"
    },
    {
      "name": "Alexandra",
      "code": "VILG",
      "county": "Queens County",
      "lat": 46.195833,
      "lng": -63.031944,
      "pop": 252,
      "score": 49.9,
      "status": "BUILT"
    },
    {
      "name": "Allisary",
      "code": "UNP",
      "county": "Queens County",
      "lat": 46.363564,
      "lng": -62.851346,
      "pop": null,
      "score": 34.2,
      "status": "DEFERRED"
    },
    {
      "name": "Alliston",
      "code": "UNP",
      "county": "Kings County",
      "lat": 46.058406,
      "lng": -62.606701,
      "pop": null,
      "score": 33.7,
      "status": "DEFERRED"
    },
    {
      "name": "Alma",
      "code": "UNP",
      "county": "Prince County",
      "lat": 46.861483,
      "lng": -64.109542,
      "pop": null,
      "score": 33.3,
      "status": "DEFERRED"
    },
    {
      "name": "Anglo Rustico",
      "code": "UNP",
      "county": "Queens County",
      "lat": 46.442244,
      "lng": -63.294859,
      "pop": null,
      "score": 34.2,
      "status": "DEFERRED"
    },
    {
      "name": "Anglo Tignish",
      "code": "UNP",
      "county": "Prince County",
      "lat": 46.975782,
      "lng": -63.995718,
      "pop": null,
      "score": 33,
      "status": "DEFERRED"
    },
    {
      "name": "Annandale",
      "code": "UNP",
      "county": "Kings County",
      "lat": 46.260852,
      "lng": -62.423688,
      "pop": null,
      "score": 33.4,
      "status": "DEFERRED"
    },
    {
      "name": "Annandale-Little Pond-Howe Bay",
      "code": "VILG",
      "county": "Kings County",
      "lat": 46.28963,
      "lng": -62.41324,
      "pop": 223,
      "score": 48.3,
      "status": "BUILT"
    },
    {
      "name": "Appin Road",
      "code": "UNP",
      "county": "Queens County",
      "lat": 46.240808,
      "lng": -63.396754,
      "pop": null,
      "score": 34.4,
      "status": "DEFERRED"
    },
    {
      "name": "Argyle Shore",
      "code": "UNP",
      "county": "Queens County",
      "lat": 46.164566,
      "lng": -63.350792,
      "pop": null,
      "score": 34.4,
      "status": "DEFERRED"
    },
    {
      "name": "Arlington",
      "code": "UNP",
      "county": "Prince County",
      "lat": 46.529285,
      "lng": -63.911495,
      "pop": null,
      "score": 34.5,
      "status": "DEFERRED"
    },
    {
      "name": "Ascension",
      "code": "UNP",
      "county": "Prince County",
      "lat": 46.959269,
      "lng": -64.064692,
      "pop": null,
      "score": 33,
      "status": "DEFERRED"
    },
    {
      "name": "Ashton",
      "code": "UNP",
      "county": "Kings County",
      "lat": 46.424106,
      "lng": -62.512003,
      "pop": null,
      "score": 33.5,
      "status": "DEFERRED"
    },
    {
      "name": "Auburn",
      "code": "UNP",
      "county": "Queens County",
      "lat": 46.293641,
      "lng": -62.907948,
      "pop": null,
      "score": 34.5,
      "status": "DEFERRED"
    },
    {
      "name": "Augustine Cove",
      "code": "UNP",
      "county": "Prince County",
      "lat": 46.224984,
      "lng": -63.608186,
      "pop": null,
      "score": 34.3,
      "status": "DEFERRED"
    },
    {
      "name": "Augustus",
      "code": "UNP",
      "county": "Queens County",
      "lat": 46.328339,
      "lng": -62.890936,
      "pop": null,
      "score": 34.4,
      "status": "DEFERRED"
    },
    {
      "name": "Avondale",
      "code": "UNP",
      "county": "Queens County",
      "lat": 46.243425,
      "lng": -62.832019,
      "pop": null,
      "score": 34.3,
      "status": "DEFERRED"
    },
    {
      "name": "Baie-Egmont",
      "code": "UNP",
      "county": "Prince County",
      "lat": 46.483333,
      "lng": -64.1,
      "pop": null,
      "score": 34.2,
      "status": "DEFERRED"
    },
    {
      "name": "Baldwin Road",
      "code": "UNP",
      "county": "Kings County",
      "lat": 46.266667,
      "lng": -62.733333,
      "pop": null,
      "score": 34.1,
      "status": "DEFERRED"
    },
    {
      "name": "Bangor",
      "code": "UNP",
      "county": "Kings County",
      "lat": 46.365833,
      "lng": -62.690264,
      "pop": null,
      "score": 33.9,
      "status": "DEFERRED"
    },
    {
      "name": "Bay Fortune",
      "code": "UNP",
      "county": "Kings County",
      "lat": 46.330669,
      "lng": -62.361931,
      "pop": null,
      "score": 33.2,
      "status": "DEFERRED"
    },
    {
      "name": "Bayfield",
      "code": "UNP",
      "county": "Kings County",
      "lat": 46.474622,
      "lng": -62.201758,
      "pop": null,
      "score": 32.7,
      "status": "DEFERRED"
    },
    {
      "name": "Bayside",
      "code": "UNP",
      "county": "Prince County",
      "lat": 46.518505,
      "lng": -63.891903,
      "pop": null,
      "score": 34.5,
      "status": "DEFERRED"
    },
    {
      "name": "Bayview",
      "code": "UNP",
      "county": "Queens County",
      "lat": 46.474687,
      "lng": -63.436044,
      "pop": null,
      "score": 34.1,
      "status": "DEFERRED"
    },
    {
      "name": "Beach Point",
      "code": "UNP",
      "county": "Kings County",
      "lat": 46.013439,
      "lng": -62.48013,
      "pop": null,
      "score": 33.3,
      "status": "DEFERRED"
    },
    {
      "name": "Bear River",
      "code": "UNP",
      "county": "Kings County",
      "lat": 46.404009,
      "lng": -62.358786,
      "pop": null,
      "score": 33.1,
      "status": "DEFERRED"
    },
    {
      "name": "Bear River North",
      "code": "VILG",
      "county": "Kings County",
      "lat": 46.433333,
      "lng": -62.366667,
      "pop": null,
      "score": 35.1,
      "status": "DEFERRED"
    },
    {
      "name": "Bear River South",
      "code": "VILG",
      "county": "Kings County",
      "lat": 46.383333,
      "lng": -62.35,
      "pop": null,
      "score": 35.1,
      "status": "DEFERRED"
    },
    {
      "name": "Beaton Road",
      "code": "UNP",
      "county": "Prince County",
      "lat": 46.631497,
      "lng": -64.147957,
      "pop": null,
      "score": 33.8,
      "status": "DEFERRED"
    },
    {
      "name": "Bedeque",
      "code": "UNP",
      "county": "Prince County",
      "lat": 46.336795,
      "lng": -63.724678,
      "pop": null,
      "score": 34.8,
      "status": "DEFERRED"
    },
    {
      "name": "Bedeque and Area",
      "code": "VILG",
      "county": "Prince County",
      "lat": 46.34,
      "lng": -63.7105556,
      "pop": 311,
      "score": 50.4,
      "status": "BUILT"
    },
    {
      "name": "Bedford Corner",
      "code": "UNP",
      "county": "Queens County",
      "lat": 46.327885,
      "lng": -63.01711,
      "pop": null,
      "score": 34.6,
      "status": "DEFERRED"
    },
    {
      "name": "Bedford Station",
      "code": "UNP",
      "county": "Queens County",
      "lat": 46.336075,
      "lng": -63.021491,
      "pop": null,
      "score": 34.6,
      "status": "DEFERRED"
    },
    {
      "name": "Belfast",
      "code": "UNP",
      "county": "Queens County",
      "lat": 46.1,
      "lng": -62.883333,
      "pop": 1687,
      "score": 53.3,
      "status": "BUILT"
    },
    {
      "name": "Belfast",
      "code": "UNP",
      "county": "Queens County",
      "lat": 46.083333,
      "lng": -62.883333,
      "pop": 1687,
      "score": 53.3,
      "status": "BUILT"
    },
    {
      "name": "Belfast",
      "code": "VILG",
      "county": "Queens County",
      "lat": 46.078521,
      "lng": -62.878289,
      "pop": 1687,
      "score": 55.2,
      "status": "BUILT"
    },
    {
      "name": "Belle River",
      "code": "UNP",
      "county": "Queens County",
      "lat": 45.986736,
      "lng": -62.835186,
      "pop": null,
      "score": 33.9,
      "status": "DEFERRED"
    },
    {
      "name": "Bellevue",
      "code": "UNP",
      "county": "Queens County",
      "lat": 46.107578,
      "lng": -62.756735,
      "pop": null,
      "score": 34,
      "status": "DEFERRED"
    },
    {
      "name": "Belmont Lot 16",
      "code": "UNP",
      "county": "Prince County",
      "lat": 46.479574,
      "lng": -63.823431,
      "pop": null,
      "score": 34.7,
      "status": "DEFERRED"
    },
    {
      "name": "Bethel",
      "code": "UNP",
      "county": "Queens County",
      "lat": 46.244616,
      "lng": -62.971293,
      "pop": null,
      "score": 34.6,
      "status": "DEFERRED"
    },
    {
      "name": "Bideford",
      "code": "UNP",
      "county": "Prince County",
      "lat": 46.604664,
      "lng": -63.913868,
      "pop": null,
      "score": 34.2,
      "status": "DEFERRED"
    },
    {
      "name": "Big Pond",
      "code": "UNP",
      "county": "Kings County",
      "lat": 46.464596,
      "lng": -62.255069,
      "pop": null,
      "score": 32.9,
      "status": "DEFERRED"
    },
    {
      "name": "Birch Hill",
      "code": "UNP",
      "county": "Queens County",
      "lat": 46.214932,
      "lng": -62.962493,
      "pop": null,
      "score": 34.6,
      "status": "DEFERRED"
    },
    {
      "name": "Birch Hill",
      "code": "UNP",
      "county": "Prince County",
      "lat": 46.555007,
      "lng": -63.872175,
      "pop": null,
      "score": 34.4,
      "status": "DEFERRED"
    },
    {
      "name": "Black Banks",
      "code": "UNP",
      "county": "Prince County",
      "lat": 46.732794,
      "lng": -64.001315,
      "pop": null,
      "score": 33.8,
      "status": "DEFERRED"
    },
    {
      "name": "Bloomfield",
      "code": "UNP",
      "county": "Prince County",
      "lat": 46.774388,
      "lng": -64.229438,
      "pop": null,
      "score": 33.4,
      "status": "DEFERRED"
    },
    {
      "name": "Bloomfield Corner",
      "code": "UNP",
      "county": "Prince County",
      "lat": 46.761313,
      "lng": -64.180609,
      "pop": null,
      "score": 33.5,
      "status": "DEFERRED"
    },
    {
      "name": "Bloomfield Station",
      "code": "UNP",
      "county": "Prince County",
      "lat": 46.766667,
      "lng": -64.233333,
      "pop": null,
      "score": 33.4,
      "status": "DEFERRED"
    },
    {
      "name": "Blooming Point",
      "code": "UNP",
      "county": "Queens County",
      "lat": 46.386823,
      "lng": -62.973183,
      "pop": null,
      "score": 34.4,
      "status": "DEFERRED"
    },
    {
      "name": "Bonshaw",
      "code": "UNP",
      "county": "Queens County",
      "lat": 46.2,
      "lng": -63.35,
      "pop": null,
      "score": 34.5,
      "status": "DEFERRED"
    },
    {
      "name": "Bonshaw",
      "code": "VILG",
      "county": "Queens County",
      "lat": 46.193518,
      "lng": -63.354074,
      "pop": null,
      "score": 36.5,
      "status": "DEFERRED"
    },
    {
      "name": "Borden",
      "code": "UNP",
      "county": "Prince County",
      "lat": 46.254167,
      "lng": -63.695833,
      "pop": 809,
      "score": 50,
      "status": "DEFERRED"
    },
    {
      "name": "Borden-Carleton",
      "code": "TOWN",
      "county": "Prince County",
      "lat": 46.261667,
      "lng": -63.673889,
      "pop": 788,
      "score": 54,
      "status": "BUILT"
    },
    {
      "name": "Bothwell",
      "code": "UNP",
      "county": "Kings County",
      "lat": 46.403926,
      "lng": -62.080305,
      "pop": null,
      "score": 32.5,
      "status": "DEFERRED"
    },
    {
      "name": "Brackley",
      "code": "UNP",
      "county": "Queens County",
      "lat": 46.316667,
      "lng": -63.15,
      "pop": 586,
      "score": 49.6,
      "status": "BUILT"
    },
    {
      "name": "Brackley",
      "code": "VILG",
      "county": "Queens County",
      "lat": 46.3130556,
      "lng": -63.1638889,
      "pop": 586,
      "score": 51.6,
      "status": "BUILT"
    },
    {
      "name": "Brackley Beach",
      "code": "UNP",
      "county": "Queens County",
      "lat": 46.42405,
      "lng": -63.192078,
      "pop": null,
      "score": 34.3,
      "status": "DEFERRED"
    },
    {
      "name": "Brackley Point",
      "code": "UNP",
      "county": "Queens County",
      "lat": 46.384562,
      "lng": -63.185047,
      "pop": null,
      "score": 34.5,
      "status": "DEFERRED"
    },
    {
      "name": "Brae",
      "code": "UNP",
      "county": "Prince County",
      "lat": 46.659243,
      "lng": -64.190998,
      "pop": null,
      "score": 33.7,
      "status": "DEFERRED"
    },
    {
      "name": "Brae Harbour",
      "code": "UNP",
      "county": "Prince County",
      "lat": 46.616873,
      "lng": -64.184152,
      "pop": null,
      "score": 33.8,
      "status": "DEFERRED"
    },
    {
      "name": "Breadalbane",
      "code": "VILG",
      "county": "Queens County",
      "lat": 46.356944,
      "lng": -63.501944,
      "pop": 170,
      "score": 46.7,
      "status": "BUILT"
    },
    {
      "name": "Bridgetown",
      "code": "UNP",
      "county": "Kings County",
      "lat": 46.307418,
      "lng": -62.525729,
      "pop": null,
      "score": 33.6,
      "status": "DEFERRED"
    },
    {
      "name": "Brighton",
      "code": "UNP",
      "county": "Queens County",
      "lat": 46.234722,
      "lng": -63.15,
      "pop": null,
      "score": 34.9,
      "status": "BUILT"
    },
    {
      "name": "Bristol",
      "code": "UNP",
      "county": "Kings County",
      "lat": 46.414263,
      "lng": -62.729976,
      "pop": null,
      "score": 33.9,
      "status": "DEFERRED"
    },
    {
      "name": "Brockton",
      "code": "UNP",
      "county": "Prince County",
      "lat": 46.800701,
      "lng": -64.249459,
      "pop": null,
      "score": 33.3,
      "status": "DEFERRED"
    },
    {
      "name": "Brookfield",
      "code": "UNP",
      "county": "Queens County",
      "lat": 46.325734,
      "lng": -63.28406,
      "pop": null,
      "score": 34.5,
      "status": "DEFERRED"
    },
    {
      "name": "Brooklyn",
      "code": "UNP",
      "county": "Kings County",
      "lat": 46.093609,
      "lng": -62.670434,
      "pop": null,
      "score": 33.8,
      "status": "DEFERRED"
    },
    {
      "name": "Brooklyn",
      "code": "UNP",
      "county": "Prince County",
      "lat": 46.803389,
      "lng": -64.110929,
      "pop": null,
      "score": 33.4,
      "status": "DEFERRED"
    },
    {
      "name": "Brookvale",
      "code": "UNP",
      "county": "Queens County",
      "lat": 46.283879,
      "lng": -63.407696,
      "pop": null,
      "score": 34.3,
      "status": "DEFERRED"
    },
    {
      "name": "Brudenell",
      "code": "UNP",
      "county": "Kings County",
      "lat": 46.187498,
      "lng": -62.651874,
      "pop": null,
      "score": 33.9,
      "status": "DEFERRED"
    },
    {
      "name": "Brudenell",
      "code": "VILG",
      "county": "Kings County",
      "lat": 46.183333,
      "lng": -62.616667,
      "pop": null,
      "score": 35.8,
      "status": "DEFERRED"
    },
    {
      "name": "Bunbury",
      "code": "UNP",
      "county": "Queens County",
      "lat": 46.236111,
      "lng": -63.086944,
      "pop": null,
      "score": 34.9,
      "status": "DEFERRED"
    },
    {
      "name": "Bungay",
      "code": "UNP",
      "county": "Queens County",
      "lat": 46.368139,
      "lng": -63.312466,
      "pop": null,
      "score": 34.4,
      "status": "DEFERRED"
    },
    {
      "name": "Burlington",
      "code": "UNP",
      "county": "Prince County",
      "lat": 46.485384,
      "lng": -63.603239,
      "pop": null,
      "score": 34.5,
      "status": "DEFERRED"
    },
    {
      "name": "Burnt Point",
      "code": "UNP",
      "county": "Kings County",
      "lat": 46.17774,
      "lng": -62.507113,
      "pop": null,
      "score": 33.6,
      "status": "DEFERRED"
    },
    {
      "name": "Burton",
      "code": "UNP",
      "county": "Prince County",
      "lat": 46.770739,
      "lng": -64.334268,
      "pop": null,
      "score": 33.2,
      "status": "DEFERRED"
    },
    {
      "name": "Byrnes Road",
      "code": "UNP",
      "county": "Kings County",
      "lat": 46.329918,
      "lng": -62.741993,
      "pop": null,
      "score": 34.1,
      "status": "DEFERRED"
    },
    {
      "name": "Cable Head East",
      "code": "UNP",
      "county": "Kings County",
      "lat": 46.465847,
      "lng": -62.568155,
      "pop": null,
      "score": 33.5,
      "status": "DEFERRED"
    },
    {
      "name": "Cable Head West",
      "code": "UNP",
      "county": "Kings County",
      "lat": 46.458357,
      "lng": -62.626112,
      "pop": null,
      "score": 33.6,
      "status": "DEFERRED"
    },
    {
      "name": "Caledonia",
      "code": "UNP",
      "county": "Queens County",
      "lat": 46.06031,
      "lng": -62.71093,
      "pop": null,
      "score": 33.9,
      "status": "DEFERRED"
    },
    {
      "name": "Cambridge",
      "code": "UNP",
      "county": "Kings County",
      "lat": 46.074497,
      "lng": -62.525827,
      "pop": null,
      "score": 33.5,
      "status": "DEFERRED"
    },
    {
      "name": "Campbells Cove",
      "code": "UNP",
      "county": "Kings County",
      "lat": 46.475897,
      "lng": -62.141725,
      "pop": null,
      "score": 32.6,
      "status": "DEFERRED"
    },
    {
      "name": "Campbellton",
      "code": "UNP",
      "county": "Queens County",
      "lat": 46.476196,
      "lng": -63.475071,
      "pop": null,
      "score": 34.2,
      "status": "DEFERRED"
    },
    {
      "name": "Campbellton",
      "code": "UNP",
      "county": "Prince County",
      "lat": 46.792011,
      "lng": -64.299271,
      "pop": null,
      "score": 33.2,
      "status": "DEFERRED"
    },
    {
      "name": "Canavoy",
      "code": "UNP",
      "county": "Kings County",
      "lat": 46.399817,
      "lng": -62.809998,
      "pop": null,
      "score": 34.1,
      "status": "DEFERRED"
    },
    {
      "name": "Canoe Cove",
      "code": "UNP",
      "county": "Queens County",
      "lat": 46.154769,
      "lng": -63.295405,
      "pop": null,
      "score": 34.5,
      "status": "DEFERRED"
    },
    {
      "name": "Cap-Egmont",
      "code": "UNP",
      "county": "Prince County",
      "lat": 46.402778,
      "lng": -64.1,
      "pop": null,
      "score": 34.3,
      "status": "DEFERRED"
    },
    {
      "name": "Cape Traverse",
      "code": "UNP",
      "county": "Prince County",
      "lat": 46.242671,
      "lng": -63.637593,
      "pop": null,
      "score": 34.4,
      "status": "DEFERRED"
    },
    {
      "name": "Cape Traverse Landing",
      "code": "UNP",
      "county": "Prince County",
      "lat": 46.235734,
      "lng": -63.651494,
      "pop": null,
      "score": 34.4,
      "status": "DEFERRED"
    },
    {
      "name": "Cape Wolfe",
      "code": "UNP",
      "county": "Prince County",
      "lat": 46.721232,
      "lng": -64.393307,
      "pop": null,
      "score": 33.2,
      "status": "DEFERRED"
    },
    {
      "name": "Cardigan",
      "code": "UNP",
      "county": "Kings County",
      "lat": 46.233333,
      "lng": -62.616667,
      "pop": 125,
      "score": 43.6,
      "status": "BUILT"
    },
    {
      "name": "Cardigan",
      "code": "VILG",
      "county": "Kings County",
      "lat": 46.233057,
      "lng": -62.61845,
      "pop": 125,
      "score": 45.6,
      "status": "BUILT"
    },
    {
      "name": "Cardigan North",
      "code": "UNP",
      "county": "Kings County",
      "lat": 46.241579,
      "lng": -62.565132,
      "pop": null,
      "score": 33.7,
      "status": "DEFERRED"
    },
    {
      "name": "Cardross",
      "code": "UNP",
      "county": "Kings County",
      "lat": 46.273942,
      "lng": -62.628965,
      "pop": null,
      "score": 33.8,
      "status": "DEFERRED"
    },
    {
      "name": "Carleton",
      "code": "UNP",
      "county": "Prince County",
      "lat": 46.692023,
      "lng": -64.151894,
      "pop": null,
      "score": 33.7,
      "status": "DEFERRED"
    },
    {
      "name": "Carleton",
      "code": "UNP",
      "county": "Prince County",
      "lat": 46.256944,
      "lng": -63.668056,
      "pop": null,
      "score": 34.5,
      "status": "DEFERRED"
    },
    {
      "name": "Carleton Siding",
      "code": "UNP",
      "county": "Prince County",
      "lat": 46.2625,
      "lng": -63.674444,
      "pop": null,
      "score": 34.5,
      "status": "DEFERRED"
    },
    {
      "name": "Cascumpec",
      "code": "UNP",
      "county": "Prince County",
      "lat": 46.739718,
      "lng": -64.091464,
      "pop": null,
      "score": 33.6,
      "status": "DEFERRED"
    },
    {
      "name": "Cavendish",
      "code": "UNP",
      "county": "Queens County",
      "lat": 46.491261,
      "lng": -63.378674,
      "pop": null,
      "score": 34,
      "status": "BUILT"
    },
    {
      "name": "Central Bedeque",
      "code": "UNP",
      "county": "Prince County",
      "lat": 46.339776,
      "lng": -63.702692,
      "pop": null,
      "score": 34.7,
      "status": "DEFERRED"
    },
    {
      "name": "Central Kildare",
      "code": "UNP",
      "county": "Prince County",
      "lat": 46.872104,
      "lng": -64.006147,
      "pop": null,
      "score": 33.3,
      "status": "DEFERRED"
    },
    {
      "name": "Central Kings",
      "code": "VILG",
      "county": "Kings County",
      "lat": 46.32437,
      "lng": -62.49427,
      "pop": 386,
      "score": 49.6,
      "status": "BUILT"
    },
    {
      "name": "Central Lot 16",
      "code": "UNP",
      "county": "Prince County",
      "lat": 46.481111,
      "lng": -63.870833,
      "pop": null,
      "score": 34.6,
      "status": "DEFERRED"
    },
    {
      "name": "Charlottetown",
      "code": "CITY",
      "county": "Queens County",
      "lat": 46.240278,
      "lng": -63.134722,
      "pop": 38809,
      "score": 71.3,
      "status": "BUILT"
    },
    {
      "name": "Chelton",
      "code": "UNP",
      "county": "Prince County",
      "lat": 46.303945,
      "lng": -63.744373,
      "pop": null,
      "score": 34.7,
      "status": "DEFERRED"
    },
    {
      "name": "Chepstow",
      "code": "UNP",
      "county": "Kings County",
      "lat": 46.354783,
      "lng": -62.214904,
      "pop": null,
      "score": 32.9,
      "status": "DEFERRED"
    },
    {
      "name": "Cherry Hill",
      "code": "UNP",
      "county": "Kings County",
      "lat": 46.370759,
      "lng": -62.817132,
      "pop": null,
      "score": 34.2,
      "status": "DEFERRED"
    },
    {
      "name": "Cherry Valley",
      "code": "UNP",
      "county": "Queens County",
      "lat": 46.174502,
      "lng": -62.923408,
      "pop": null,
      "score": 34.5,
      "status": "DEFERRED"
    },
    {
      "name": "China Point",
      "code": "UNP",
      "county": "Queens County",
      "lat": 46.146181,
      "lng": -62.902328,
      "pop": null,
      "score": 34.4,
      "status": "DEFERRED"
    },
    {
      "name": "Christopher Cross",
      "code": "UNP",
      "county": "Prince County",
      "lat": 46.984788,
      "lng": -64.042436,
      "pop": null,
      "score": 32.9,
      "status": "DEFERRED"
    },
    {
      "name": "Church Road",
      "code": "UNP",
      "county": "Kings County",
      "lat": 46.373698,
      "lng": -62.621138,
      "pop": null,
      "score": 33.7,
      "status": "DEFERRED"
    },
    {
      "name": "Churchill",
      "code": "UNP",
      "county": "Queens County",
      "lat": 46.218077,
      "lng": -63.330725,
      "pop": null,
      "score": 34.5,
      "status": "DEFERRED"
    },
    {
      "name": "Clarkin",
      "code": "UNP",
      "county": "Queens County",
      "lat": 46.244677,
      "lng": -62.883241,
      "pop": null,
      "score": 34.4,
      "status": "DEFERRED"
    },
    {
      "name": "Clearspring",
      "code": "UNP",
      "county": "Kings County",
      "lat": 46.458834,
      "lng": -62.344274,
      "pop": null,
      "score": 33.1,
      "status": "DEFERRED"
    },
    {
      "name": "Clermont",
      "code": "UNP",
      "county": "Prince County",
      "lat": 46.448574,
      "lng": -63.678935,
      "pop": null,
      "score": 34.7,
      "status": "DEFERRED"
    },
    {
      "name": "Clinton",
      "code": "UNP",
      "county": "Queens County",
      "lat": 46.448395,
      "lng": -63.547807,
      "pop": null,
      "score": 34.4,
      "status": "DEFERRED"
    },
    {
      "name": "Clyde",
      "code": "UNP",
      "county": "Queens County",
      "lat": 46.346212,
      "lng": -63.397633,
      "pop": null,
      "score": 34.3,
      "status": "DEFERRED"
    },
    {
      "name": "Clyde River",
      "code": "VILG",
      "county": "Queens County",
      "lat": 46.22396,
      "lng": -63.26364,
      "pop": 614,
      "score": 51.7,
      "status": "BUILT"
    },
    {
      "name": "Clyde River",
      "code": "UNP",
      "county": "Queens County",
      "lat": 46.223874,
      "lng": -63.25716,
      "pop": 614,
      "score": 49.7,
      "status": "BUILT"
    },
    {
      "name": "Coleman",
      "code": "UNP",
      "county": "Prince County",
      "lat": 46.685894,
      "lng": -64.167927,
      "pop": null,
      "score": 33.7,
      "status": "DEFERRED"
    },
    {
      "name": "Colville",
      "code": "UNP",
      "county": "Queens County",
      "lat": 46.302501,
      "lng": -63.2822,
      "pop": null,
      "score": 34.6,
      "status": "DEFERRED"
    },
    {
      "name": "Commercial Cross",
      "code": "UNP",
      "county": "Kings County",
      "lat": 46.127525,
      "lng": -62.633146,
      "pop": null,
      "score": 33.8,
      "status": "DEFERRED"
    },
    {
      "name": "Conway",
      "code": "UNP",
      "county": "Prince County",
      "lat": 46.658148,
      "lng": -63.990656,
      "pop": null,
      "score": 34,
      "status": "DEFERRED"
    },
    {
      "name": "Cornwall",
      "code": "TOWN",
      "county": "Queens County",
      "lat": 46.226389,
      "lng": -63.219444,
      "pop": 6574,
      "score": 63.5,
      "status": "BUILT"
    },
    {
      "name": "Corran Ban",
      "code": "UNP",
      "county": "Queens County",
      "lat": 46.383336,
      "lng": -63.039703,
      "pop": null,
      "score": 34.5,
      "status": "DEFERRED"
    },
    {
      "name": "Corraville",
      "code": "UNP",
      "county": "Kings County",
      "lat": 46.318421,
      "lng": -62.610414,
      "pop": null,
      "score": 33.8,
      "status": "DEFERRED"
    },
    {
      "name": "Covehead",
      "code": "UNP",
      "county": "Queens County",
      "lat": 46.381988,
      "lng": -63.12514,
      "pop": null,
      "score": 34.5,
      "status": "DEFERRED"
    },
    {
      "name": "Covehead Road",
      "code": "UNP",
      "county": "Queens County",
      "lat": 46.358563,
      "lng": -63.115364,
      "pop": null,
      "score": 34.6,
      "status": "DEFERRED"
    },
    {
      "name": "Crapaud",
      "code": "VILG",
      "county": "Queens County",
      "lat": 46.239273,
      "lng": -63.497083,
      "pop": 361,
      "score": 50.1,
      "status": "BUILT"
    },
    {
      "name": "Crosbys Mill",
      "code": "UNP",
      "county": "Queens County",
      "lat": 46.203783,
      "lng": -63.35274,
      "pop": null,
      "score": 34.5,
      "status": "DEFERRED"
    },
    {
      "name": "Cross River",
      "code": "UNP",
      "county": "Prince County",
      "lat": 46.49543,
      "lng": -63.961921,
      "pop": null,
      "score": 34.5,
      "status": "DEFERRED"
    },
    {
      "name": "Cross Roads",
      "code": "UNP",
      "county": "Queens County",
      "lat": 46.217602,
      "lng": -63.077805,
      "pop": null,
      "score": 34.9,
      "status": "DEFERRED"
    },
    {
      "name": "Culloden",
      "code": "UNP",
      "county": "Queens County",
      "lat": 46.024032,
      "lng": -62.776172,
      "pop": null,
      "score": 33.9,
      "status": "DEFERRED"
    },
    {
      "name": "Cumberland",
      "code": "UNP",
      "county": "Queens County",
      "lat": 46.170547,
      "lng": -63.159118,
      "pop": null,
      "score": 34.8,
      "status": "DEFERRED"
    },
    {
      "name": "Cymbria",
      "code": "UNP",
      "county": "Queens County",
      "lat": 46.402391,
      "lng": -63.254771,
      "pop": null,
      "score": 34.4,
      "status": "DEFERRED"
    },
    {
      "name": "Dalvay",
      "code": "VILG",
      "county": "Queens County",
      "lat": 46.411511,
      "lng": -63.066466,
      "pop": null,
      "score": 36.4,
      "status": "DEFERRED"
    },
    {
      "name": "Dalvay by the Sea",
      "code": "UNP",
      "county": "Queens County",
      "lat": 46.416915,
      "lng": -63.07507,
      "pop": null,
      "score": 34.4,
      "status": "DEFERRED"
    },
    {
      "name": "Darlington",
      "code": "UNP",
      "county": "Queens County",
      "lat": 46.315255,
      "lng": -63.325855,
      "pop": 99,
      "score": 43.8,
      "status": "DEFERRED"
    },
    {
      "name": "Darlington",
      "code": "VILG",
      "county": "Queens County",
      "lat": 46.31997,
      "lng": -63.32478,
      "pop": 99,
      "score": 45.7,
      "status": "DEFERRED"
    },
    {
      "name": "Darnley",
      "code": "UNP",
      "county": "Prince County",
      "lat": 46.54123,
      "lng": -63.634128,
      "pop": null,
      "score": 34.4,
      "status": "DEFERRED"
    },
    {
      "name": "Days Corner",
      "code": "UNP",
      "county": "Prince County",
      "lat": 46.454699,
      "lng": -63.977611,
      "pop": null,
      "score": 34.5,
      "status": "DEFERRED"
    },
    {
      "name": "DeBlois",
      "code": "UNP",
      "county": "Prince County",
      "lat": 46.912608,
      "lng": -64.112173,
      "pop": null,
      "score": 33.1,
      "status": "DEFERRED"
    },
    {
      "name": "DeGros Marsh",
      "code": "UNP",
      "county": "Kings County",
      "lat": 46.2285,
      "lng": -62.484587,
      "pop": null,
      "score": 33.5,
      "status": "DEFERRED"
    },
    {
      "name": "DeSable",
      "code": "UNP",
      "county": "Queens County",
      "lat": 46.197484,
      "lng": -63.414068,
      "pop": null,
      "score": 34.3,
      "status": "DEFERRED"
    },
    {
      "name": "Derby",
      "code": "UNP",
      "county": "Prince County",
      "lat": 46.639678,
      "lng": -64.191,
      "pop": null,
      "score": 33.8,
      "status": "DEFERRED"
    },
    {
      "name": "Dingwell",
      "code": "UNP",
      "county": "Kings County",
      "lat": 46.416667,
      "lng": -62.666667,
      "pop": null,
      "score": 33.8,
      "status": "DEFERRED"
    },
    {
      "name": "Dingwells Mills",
      "code": "UNP",
      "county": "Kings County",
      "lat": 46.359774,
      "lng": -62.448244,
      "pop": null,
      "score": 33.4,
      "status": "DEFERRED"
    },
    {
      "name": "Dock Corner",
      "code": "UNP",
      "county": "Prince County",
      "lat": 46.810569,
      "lng": -64.081965,
      "pop": null,
      "score": 33.4,
      "status": "DEFERRED"
    },
    {
      "name": "Donagh",
      "code": "UNP",
      "county": "Queens County",
      "lat": 46.263675,
      "lng": -62.961798,
      "pop": null,
      "score": 34.6,
      "status": "DEFERRED"
    },
    {
      "name": "Donaldston",
      "code": "UNP",
      "county": "Queens County",
      "lat": 46.356794,
      "lng": -63.005862,
      "pop": null,
      "score": 34.5,
      "status": "DEFERRED"
    },
    {
      "name": "Douglas",
      "code": "UNP",
      "county": "Kings County",
      "lat": 46.390367,
      "lng": -62.815506,
      "pop": null,
      "score": 34.1,
      "status": "DEFERRED"
    },
    {
      "name": "Dover",
      "code": "UNP",
      "county": "Kings County",
      "lat": 46.024277,
      "lng": -62.642344,
      "pop": null,
      "score": 33.7,
      "status": "DEFERRED"
    },
    {
      "name": "Dromore",
      "code": "UNP",
      "county": "Queens County",
      "lat": 46.3,
      "lng": -62.833333,
      "pop": null,
      "score": 34.3,
      "status": "DEFERRED"
    },
    {
      "name": "Dunblane",
      "code": "UNP",
      "county": "Prince County",
      "lat": 46.650107,
      "lng": -64.343844,
      "pop": null,
      "score": 33.5,
      "status": "DEFERRED"
    },
    {
      "name": "Dundas",
      "code": "UNP",
      "county": "Kings County",
      "lat": 46.316788,
      "lng": -62.508736,
      "pop": null,
      "score": 33.6,
      "status": "DEFERRED"
    },
    {
      "name": "Dundee",
      "code": "UNP",
      "county": "Kings County",
      "lat": 46.402628,
      "lng": -62.767604,
      "pop": null,
      "score": 34,
      "status": "DEFERRED"
    },
    {
      "name": "Dunedin",
      "code": "UNP",
      "county": "Queens County",
      "lat": 46.202148,
      "lng": -63.287285,
      "pop": null,
      "score": 34.6,
      "status": "DEFERRED"
    },
    {
      "name": "Dunstaffnage",
      "code": "UNP",
      "county": "Queens County",
      "lat": 46.323418,
      "lng": -63.032762,
      "pop": null,
      "score": 34.6,
      "status": "DEFERRED"
    },
    {
      "name": "Duvar",
      "code": "UNP",
      "county": "Prince County",
      "lat": 46.746088,
      "lng": -64.228336,
      "pop": null,
      "score": 33.4,
      "status": "DEFERRED"
    },
    {
      "name": "Earnscliffe",
      "code": "UNP",
      "county": "Queens County",
      "lat": 46.139093,
      "lng": -62.952743,
      "pop": null,
      "score": 34.5,
      "status": "DEFERRED"
    },
    {
      "name": "East Baltic",
      "code": "VILG",
      "county": "Kings County",
      "lat": 46.433333,
      "lng": -62.166667,
      "pop": null,
      "score": 34.7,
      "status": "DEFERRED"
    },
    {
      "name": "East Bideford",
      "code": "UNP",
      "county": "Prince County",
      "lat": 46.623814,
      "lng": -63.912923,
      "pop": null,
      "score": 34.2,
      "status": "DEFERRED"
    },
    {
      "name": "East Point",
      "code": "UNP",
      "county": "Kings County",
      "lat": 46.446938,
      "lng": -62.000095,
      "pop": null,
      "score": 32.3,
      "status": "DEFERRED"
    },
    {
      "name": "East Royalty",
      "code": "UNP",
      "county": "Queens County",
      "lat": 46.277778,
      "lng": -63.103611,
      "pop": null,
      "score": 34.8,
      "status": "BUILT"
    },
    {
      "name": "East Wiltshire",
      "code": "UNP",
      "county": "Queens County",
      "lat": 46.254167,
      "lng": -63.215278,
      "pop": null,
      "score": 34.8,
      "status": "DEFERRED"
    },
    {
      "name": "Eastern Kings",
      "code": "VILG",
      "county": "Kings County",
      "lat": 46.43471,
      "lng": -62.11616,
      "pop": 687,
      "score": 49.8,
      "status": "BUILT"
    },
    {
      "name": "Ebbsfleet",
      "code": "UNP",
      "county": "Prince County",
      "lat": 46.883333,
      "lng": -64.233333,
      "pop": null,
      "score": 33.1,
      "status": "DEFERRED"
    },
    {
      "name": "Ebenezer",
      "code": "UNP",
      "county": "Queens County",
      "lat": 46.350875,
      "lng": -63.259223,
      "pop": null,
      "score": 34.5,
      "status": "DEFERRED"
    },
    {
      "name": "Eglington",
      "code": "UNP",
      "county": "Kings County",
      "lat": 46.316417,
      "lng": -62.369071,
      "pop": null,
      "score": 33.2,
      "status": "DEFERRED"
    },
    {
      "name": "Eldon",
      "code": "UNP",
      "county": "Queens County",
      "lat": 46.094524,
      "lng": -62.887698,
      "pop": null,
      "score": 34.3,
      "status": "DEFERRED"
    },
    {
      "name": "Ellerslie",
      "code": "UNP",
      "county": "Prince County",
      "lat": 46.603346,
      "lng": -63.944348,
      "pop": null,
      "score": 34.2,
      "status": "DEFERRED"
    },
    {
      "name": "Ellerslie-Bideford",
      "code": "UNP",
      "county": "Prince County",
      "lat": 46.60325,
      "lng": -63.95103,
      "pop": null,
      "score": 34.2,
      "status": "DEFERRED"
    },
    {
      "name": "Elliotts",
      "code": "UNP",
      "county": "Queens County",
      "lat": 46.364209,
      "lng": -63.465039,
      "pop": null,
      "score": 34.2,
      "status": "DEFERRED"
    },
    {
      "name": "Elliotvale",
      "code": "UNP",
      "county": "Kings County",
      "lat": 46.24652,
      "lng": -62.773972,
      "pop": null,
      "score": 34.2,
      "status": "DEFERRED"
    },
    {
      "name": "Elmira",
      "code": "UNP",
      "county": "Kings County",
      "lat": 46.440591,
      "lng": -62.064743,
      "pop": null,
      "score": 32.5,
      "status": "DEFERRED"
    },
    {
      "name": "Elmsdale",
      "code": "UNP",
      "county": "Prince County",
      "lat": 46.820158,
      "lng": -64.139027,
      "pop": null,
      "score": 33.4,
      "status": "DEFERRED"
    },
    {
      "name": "Elmwood",
      "code": "UNP",
      "county": "Queens County",
      "lat": 46.244214,
      "lng": -63.330506,
      "pop": null,
      "score": 34.5,
      "status": "DEFERRED"
    },
    {
      "name": "Emerald",
      "code": "VILG",
      "county": "Queens County",
      "lat": 46.366667,
      "lng": -63.55,
      "pop": null,
      "score": 36.4,
      "status": "DEFERRED"
    },
    {
      "name": "Emyvale",
      "code": "UNP",
      "county": "Queens County",
      "lat": 46.278303,
      "lng": -63.358371,
      "pop": null,
      "score": 34.4,
      "status": "DEFERRED"
    },
    {
      "name": "Enmore",
      "code": "UNP",
      "county": "Prince County",
      "lat": 46.583983,
      "lng": -64.040405,
      "pop": null,
      "score": 34.1,
      "status": "DEFERRED"
    },
    {
      "name": "Fairfield",
      "code": "UNP",
      "county": "Kings County",
      "lat": 46.473107,
      "lng": -62.113399,
      "pop": null,
      "score": 32.5,
      "status": "DEFERRED"
    },
    {
      "name": "Fairview",
      "code": "UNP",
      "county": "Queens County",
      "lat": 46.178777,
      "lng": -63.202313,
      "pop": null,
      "score": 34.7,
      "status": "DEFERRED"
    },
    {
      "name": "Fanning Brook",
      "code": "UNP",
      "county": "Kings County",
      "lat": 46.339462,
      "lng": -62.819459,
      "pop": null,
      "score": 34.2,
      "status": "DEFERRED"
    },
    {
      "name": "Farmington",
      "code": "UNP",
      "county": "Kings County",
      "lat": 46.383451,
      "lng": -62.488736,
      "pop": null,
      "score": 33.5,
      "status": "DEFERRED"
    },
    {
      "name": "Fernwood",
      "code": "UNP",
      "county": "Prince County",
      "lat": 46.321359,
      "lng": -63.806818,
      "pop": null,
      "score": 34.8,
      "status": "DEFERRED"
    },
    {
      "name": "Five Houses",
      "code": "UNP",
      "county": "Kings County",
      "lat": 46.406335,
      "lng": -62.532288,
      "pop": null,
      "score": 33.5,
      "status": "DEFERRED"
    },
    {
      "name": "Flat River",
      "code": "UNP",
      "county": "Queens County",
      "lat": 46.009951,
      "lng": -62.864735,
      "pop": null,
      "score": 34,
      "status": "DEFERRED"
    },
    {
      "name": "Fodhla",
      "code": "UNP",
      "county": "Queens County",
      "lat": 46.096445,
      "lng": -62.814302,
      "pop": null,
      "score": 34.1,
      "status": "DEFERRED"
    },
    {
      "name": "Forest Hill",
      "code": "UNP",
      "county": "Kings County",
      "lat": 46.360267,
      "lng": -62.564646,
      "pop": null,
      "score": 33.6,
      "status": "DEFERRED"
    },
    {
      "name": "Forestview",
      "code": "UNP",
      "county": "Prince County",
      "lat": 46.723057,
      "lng": -64.280197,
      "pop": null,
      "score": 33.4,
      "status": "DEFERRED"
    },
    {
      "name": "Fort Augustus",
      "code": "UNP",
      "county": "Queens County",
      "lat": 46.321667,
      "lng": -62.920865,
      "pop": null,
      "score": 34.4,
      "status": "DEFERRED"
    },
    {
      "name": "Fortune Bridge",
      "code": "UNP",
      "county": "Kings County",
      "lat": 46.345804,
      "lng": -62.377713,
      "pop": null,
      "score": 33.2,
      "status": "DEFERRED"
    },
    {
      "name": "Fortune Cove",
      "code": "UNP",
      "county": "Prince County",
      "lat": 46.757877,
      "lng": -64.129687,
      "pop": null,
      "score": 33.5,
      "status": "DEFERRED"
    },
    {
      "name": "Fortune Harbour",
      "code": "UNP",
      "county": "Kings County",
      "lat": 46.335387,
      "lng": -62.357484,
      "pop": null,
      "score": 33.2,
      "status": "DEFERRED"
    },
    {
      "name": "Founds Mills",
      "code": "UNP",
      "county": "Queens County",
      "lat": 46.438967,
      "lng": -63.497815,
      "pop": null,
      "score": 34.3,
      "status": "DEFERRED"
    },
    {
      "name": "Foxley River",
      "code": "UNP",
      "county": "Prince County",
      "lat": 46.692473,
      "lng": -64.012092,
      "pop": null,
      "score": 33.9,
      "status": "DEFERRED"
    },
    {
      "name": "Fredericton",
      "code": "UNP",
      "county": "Queens County",
      "lat": 46.360635,
      "lng": -63.42618,
      "pop": null,
      "score": 34.2,
      "status": "DEFERRED"
    },
    {
      "name": "Freeland",
      "code": "UNP",
      "county": "Prince County",
      "lat": 46.677399,
      "lng": -63.963105,
      "pop": null,
      "score": 34,
      "status": "DEFERRED"
    },
    {
      "name": "Freetown",
      "code": "UNP",
      "county": "Prince County",
      "lat": 46.37387,
      "lng": -63.619784,
      "pop": null,
      "score": 34.6,
      "status": "DEFERRED"
    },
    {
      "name": "French River",
      "code": "UNP",
      "county": "Queens County",
      "lat": 46.516709,
      "lng": -63.519396,
      "pop": null,
      "score": 34.3,
      "status": "DEFERRED"
    },
    {
      "name": "French Village",
      "code": "UNP",
      "county": "Queens County",
      "lat": 46.402287,
      "lng": -63.413534,
      "pop": null,
      "score": 34.1,
      "status": "DEFERRED"
    },
    {
      "name": "French Village",
      "code": "UNP",
      "county": "Queens County",
      "lat": 46.409853,
      "lng": -62.876592,
      "pop": null,
      "score": 34.2,
      "status": "DEFERRED"
    },
    {
      "name": "Frenchfort",
      "code": "UNP",
      "county": "Queens County",
      "lat": 46.317149,
      "lng": -63.015301,
      "pop": null,
      "score": 34.6,
      "status": "DEFERRED"
    },
    {
      "name": "Gairloch",
      "code": "VILG",
      "county": "Queens County",
      "lat": 46.033333,
      "lng": -62.816667,
      "pop": null,
      "score": 36,
      "status": "DEFERRED"
    },
    {
      "name": "Gambles Corner",
      "code": "UNP",
      "county": "Prince County",
      "lat": 46.265514,
      "lng": -63.516032,
      "pop": null,
      "score": 34.2,
      "status": "DEFERRED"
    },
    {
      "name": "Garfield",
      "code": "UNP",
      "county": "Queens County",
      "lat": 46.059895,
      "lng": -62.858356,
      "pop": null,
      "score": 34.2,
      "status": "DEFERRED"
    },
    {
      "name": "Gaspereaux",
      "code": "UNP",
      "county": "Kings County",
      "lat": 46.106354,
      "lng": -62.467702,
      "pop": null,
      "score": 33.4,
      "status": "DEFERRED"
    },
    {
      "name": "Georgetown",
      "code": "TOWN",
      "county": "Kings County",
      "lat": 46.182095,
      "lng": -62.532573,
      "pop": null,
      "score": 37.6,
      "status": "BUILT"
    },
    {
      "name": "Georgetown Royalty",
      "code": "VILG",
      "county": "Kings County",
      "lat": 46.20897,
      "lng": -62.567355,
      "pop": null,
      "score": 35.7,
      "status": "DEFERRED"
    },
    {
      "name": "Gladstone",
      "code": "UNP",
      "county": "Kings County",
      "lat": 46.019347,
      "lng": -62.567549,
      "pop": null,
      "score": 33.5,
      "status": "DEFERRED"
    },
    {
      "name": "Glen Valley",
      "code": "UNP",
      "county": "Queens County",
      "lat": 46.349948,
      "lng": -63.443759,
      "pop": null,
      "score": 34.2,
      "status": "DEFERRED"
    },
    {
      "name": "Glencoe",
      "code": "UNP",
      "county": "Queens County",
      "lat": 46.201097,
      "lng": -62.81395,
      "pop": null,
      "score": 34.3,
      "status": "DEFERRED"
    },
    {
      "name": "Glencorradale",
      "code": "UNP",
      "county": "Kings County",
      "lat": 46.45,
      "lng": -62.183333,
      "pop": null,
      "score": 32.7,
      "status": "DEFERRED"
    },
    {
      "name": "Glenfanning",
      "code": "UNP",
      "county": "Kings County",
      "lat": 46.275303,
      "lng": -62.587526,
      "pop": null,
      "score": 33.8,
      "status": "DEFERRED"
    },
    {
      "name": "Glenfinnan",
      "code": "UNP",
      "county": "Queens County",
      "lat": 46.293998,
      "lng": -62.969762,
      "pop": null,
      "score": 34.6,
      "status": "DEFERRED"
    },
    {
      "name": "Glengarry",
      "code": "UNP",
      "county": "Prince County",
      "lat": 46.76244,
      "lng": -64.31104,
      "pop": null,
      "score": 33.3,
      "status": "DEFERRED"
    },
    {
      "name": "Glenmartin",
      "code": "UNP",
      "county": "Kings County",
      "lat": 46.072823,
      "lng": -62.665579,
      "pop": null,
      "score": 33.8,
      "status": "DEFERRED"
    },
    {
      "name": "Glenroy",
      "code": "UNP",
      "county": "Queens County",
      "lat": 46.356089,
      "lng": -62.905374,
      "pop": null,
      "score": 34.4,
      "status": "DEFERRED"
    },
    {
      "name": "Glenwilliam",
      "code": "UNP",
      "county": "Kings County",
      "lat": 46.048231,
      "lng": -62.655464,
      "pop": null,
      "score": 33.7,
      "status": "DEFERRED"
    },
    {
      "name": "Glenwood",
      "code": "UNP",
      "county": "Prince County",
      "lat": 46.646994,
      "lng": -64.312025,
      "pop": null,
      "score": 33.5,
      "status": "DEFERRED"
    },
    {
      "name": "Goose River",
      "code": "UNP",
      "county": "Kings County",
      "lat": 46.457079,
      "lng": -62.507333,
      "pop": null,
      "score": 33.4,
      "status": "DEFERRED"
    },
    {
      "name": "Gowanbrae",
      "code": "UNP",
      "county": "Kings County",
      "lat": 46.38784,
      "lng": -62.304027,
      "pop": null,
      "score": 33,
      "status": "DEFERRED"
    },
    {
      "name": "Grahams Road",
      "code": "UNP",
      "county": "Queens County",
      "lat": 46.428269,
      "lng": -63.531141,
      "pop": null,
      "score": 34.4,
      "status": "DEFERRED"
    },
    {
      "name": "Grand River",
      "code": "UNP",
      "county": "Prince County",
      "lat": 46.508316,
      "lng": -63.911574,
      "pop": null,
      "score": 34.5,
      "status": "DEFERRED"
    },
    {
      "name": "Grand Tracadie",
      "code": "UNP",
      "county": "Queens County",
      "lat": 46.389743,
      "lng": -63.042725,
      "pop": null,
      "score": 34.4,
      "status": "DEFERRED"
    },
    {
      "name": "Grand Tracadie",
      "code": "VILG",
      "county": "Queens County",
      "lat": 46.39736,
      "lng": -63.04427,
      "pop": null,
      "score": 36.4,
      "status": "DEFERRED"
    },
    {
      "name": "Grandview",
      "code": "UNP",
      "county": "Queens County",
      "lat": 46.123425,
      "lng": -62.77344,
      "pop": null,
      "score": 34.1,
      "status": "DEFERRED"
    },
    {
      "name": "Granville",
      "code": "UNP",
      "county": "Queens County",
      "lat": 46.425847,
      "lng": -63.469857,
      "pop": null,
      "score": 34.3,
      "status": "DEFERRED"
    },
    {
      "name": "Green Bay",
      "code": "UNP",
      "county": "Queens County",
      "lat": 46.254008,
      "lng": -63.359665,
      "pop": null,
      "score": 34.5,
      "status": "DEFERRED"
    },
    {
      "name": "Green Gables",
      "code": "UNP",
      "county": "Queens County",
      "lat": 46.483333,
      "lng": -63.383333,
      "pop": null,
      "score": 34,
      "status": "DEFERRED"
    },
    {
      "name": "Green Meadows",
      "code": "UNP",
      "county": "Kings County",
      "lat": 46.364374,
      "lng": -62.732315,
      "pop": null,
      "score": 34,
      "status": "DEFERRED"
    },
    {
      "name": "Green Road",
      "code": "UNP",
      "county": "Queens County",
      "lat": 46.202455,
      "lng": -63.382258,
      "pop": null,
      "score": 34.4,
      "status": "DEFERRED"
    },
    {
      "name": "Greenfield",
      "code": "UNP",
      "county": "Kings County",
      "lat": 46.181937,
      "lng": -62.736713,
      "pop": null,
      "score": 34.1,
      "status": "DEFERRED"
    },
    {
      "name": "Greenmount",
      "code": "UNP",
      "county": "Prince County",
      "lat": 46.900813,
      "lng": -64.040085,
      "pop": null,
      "score": 33.2,
      "status": "DEFERRED"
    },
    {
      "name": "Greenmount-Montrose",
      "code": "VILG",
      "county": "Prince County",
      "lat": 46.866667,
      "lng": -64.033333,
      "pop": 262,
      "score": 48.6,
      "status": "BUILT"
    },
    {
      "name": "Greenvale",
      "code": "UNP",
      "county": "Queens County",
      "lat": 46.340269,
      "lng": -63.314724,
      "pop": null,
      "score": 34.4,
      "status": "DEFERRED"
    },
    {
      "name": "Greenvale",
      "code": "UNP",
      "county": "Kings County",
      "lat": 46.393936,
      "lng": -62.18215,
      "pop": null,
      "score": 32.8,
      "status": "DEFERRED"
    },
    {
      "name": "Greenwich",
      "code": "UNP",
      "county": "Kings County",
      "lat": 46.436693,
      "lng": -62.642688,
      "pop": null,
      "score": 33.7,
      "status": "DEFERRED"
    },
    {
      "name": "Guernsey Cove",
      "code": "UNP",
      "county": "Kings County",
      "lat": 45.986423,
      "lng": -62.494856,
      "pop": null,
      "score": 33.3,
      "status": "DEFERRED"
    },
    {
      "name": "Haliburton",
      "code": "UNP",
      "county": "Prince County",
      "lat": 46.707231,
      "lng": -64.351881,
      "pop": null,
      "score": 33.3,
      "status": "DEFERRED"
    },
    {
      "name": "Hamilton",
      "code": "UNP",
      "county": "Prince County",
      "lat": 46.493225,
      "lng": -63.702151,
      "pop": null,
      "score": 34.6,
      "status": "DEFERRED"
    },
    {
      "name": "Hampshire",
      "code": "VILG",
      "county": "Queens County",
      "lat": 46.28727,
      "lng": -63.27306,
      "pop": 339,
      "score": 50.4,
      "status": "BUILT"
    },
    {
      "name": "Hampshire",
      "code": "UNP",
      "county": "Queens County",
      "lat": 46.286595,
      "lng": -63.279859,
      "pop": 339,
      "score": 48.4,
      "status": "BUILT"
    },
    {
      "name": "Hampton",
      "code": "UNP",
      "county": "Queens County",
      "lat": 46.212596,
      "lng": -63.460918,
      "pop": null,
      "score": 34.2,
      "status": "DEFERRED"
    },
    {
      "name": "Harmony",
      "code": "UNP",
      "county": "Prince County",
      "lat": 46.523618,
      "lng": -64.045797,
      "pop": null,
      "score": 34.3,
      "status": "DEFERRED"
    },
    {
      "name": "Harmony Junction",
      "code": "UNP",
      "county": "Kings County",
      "lat": 46.405887,
      "lng": -62.253097,
      "pop": null,
      "score": 32.9,
      "status": "DEFERRED"
    },
    {
      "name": "Harper",
      "code": "UNP",
      "county": "Prince County",
      "lat": 46.936242,
      "lng": -64.083732,
      "pop": null,
      "score": 33.1,
      "status": "DEFERRED"
    },
    {
      "name": "Harrington",
      "code": "UNP",
      "county": "Queens County",
      "lat": 46.350236,
      "lng": -63.16771,
      "pop": null,
      "score": 34.6,
      "status": "DEFERRED"
    },
    {
      "name": "Hartsville",
      "code": "UNP",
      "county": "Queens County",
      "lat": 46.319867,
      "lng": -63.395688,
      "pop": null,
      "score": 34.3,
      "status": "DEFERRED"
    },
    {
      "name": "Hazel Grove",
      "code": "VILG",
      "county": "Queens County",
      "lat": 46.366667,
      "lng": -63.4,
      "pop": null,
      "score": 36.2,
      "status": "DEFERRED"
    },
    {
      "name": "Hazelbrook",
      "code": "UNP",
      "county": "Queens County",
      "lat": 46.218078,
      "lng": -62.991922,
      "pop": 220,
      "score": 47.6,
      "status": "BUILT"
    },
    {
      "name": "Hazelbrook",
      "code": "VILG",
      "county": "Queens County",
      "lat": 46.22242,
      "lng": -62.9996,
      "pop": 220,
      "score": 49.6,
      "status": "BUILT"
    },
    {
      "name": "Hazelgrove",
      "code": "UNP",
      "county": "Queens County",
      "lat": 46.363375,
      "lng": -63.402775,
      "pop": null,
      "score": 34.2,
      "status": "DEFERRED"
    },
    {
      "name": "Head of Cardigan",
      "code": "UNP",
      "county": "Kings County",
      "lat": 46.256831,
      "lng": -62.69167,
      "pop": null,
      "score": 34,
      "status": "DEFERRED"
    },
    {
      "name": "Head of Hillsborough",
      "code": "UNP",
      "county": "Kings County",
      "lat": 46.367532,
      "lng": -62.787813,
      "pop": null,
      "score": 34.1,
      "status": "DEFERRED"
    },
    {
      "name": "Head of Montague",
      "code": "UNP",
      "county": "Kings County",
      "lat": 46.163447,
      "lng": -62.738848,
      "pop": null,
      "score": 34.1,
      "status": "DEFERRED"
    },
    {
      "name": "Heatherdale",
      "code": "UNP",
      "county": "Kings County",
      "lat": 46.114457,
      "lng": -62.697628,
      "pop": null,
      "score": 33.9,
      "status": "DEFERRED"
    },
    {
      "name": "Hebron",
      "code": "UNP",
      "county": "Prince County",
      "lat": 46.62972,
      "lng": -64.257876,
      "pop": null,
      "score": 33.7,
      "status": "DEFERRED"
    },
    {
      "name": "Hermanville",
      "code": "UNP",
      "county": "Kings County",
      "lat": 46.461322,
      "lng": -62.279193,
      "pop": null,
      "score": 32.9,
      "status": "DEFERRED"
    },
    {
      "name": "Hermitage",
      "code": "UNP",
      "county": "Queens County",
      "lat": 46.216667,
      "lng": -62.833333,
      "pop": null,
      "score": 34.3,
      "status": "DEFERRED"
    },
    {
      "name": "Higgins Road",
      "code": "UNP",
      "county": "Prince County",
      "lat": 46.518372,
      "lng": -64.075825,
      "pop": null,
      "score": 34.2,
      "status": "DEFERRED"
    },
    {
      "name": "High Bank",
      "code": "UNP",
      "county": "Kings County",
      "lat": 45.968035,
      "lng": -62.614956,
      "pop": null,
      "score": 33.5,
      "status": "DEFERRED"
    },
    {
      "name": "Highfield",
      "code": "UNP",
      "county": "Queens County",
      "lat": 46.288889,
      "lng": -63.172222,
      "pop": null,
      "score": 34.8,
      "status": "DEFERRED"
    },
    {
      "name": "Hillsborough Park",
      "code": "UNP",
      "county": "Queens County",
      "lat": 46.263056,
      "lng": -63.098611,
      "pop": null,
      "score": 34.9,
      "status": "DEFERRED"
    },
    {
      "name": "Hope River",
      "code": "UNP",
      "county": "Queens County",
      "lat": 46.434164,
      "lng": -63.401018,
      "pop": null,
      "score": 34.1,
      "status": "DEFERRED"
    },
    {
      "name": "Hopefield",
      "code": "UNP",
      "county": "Kings County",
      "lat": 45.999803,
      "lng": -62.684319,
      "pop": null,
      "score": 33.7,
      "status": "DEFERRED"
    },
    {
      "name": "Howe Bay",
      "code": "UNP",
      "county": "Kings County",
      "lat": 46.304759,
      "lng": -62.412332,
      "pop": null,
      "score": 33.3,
      "status": "DEFERRED"
    },
    {
      "name": "Howlan",
      "code": "UNP",
      "county": "Prince County",
      "lat": 46.729625,
      "lng": -64.224494,
      "pop": null,
      "score": 33.5,
      "status": "DEFERRED"
    },
    {
      "name": "Hunter River",
      "code": "UNP",
      "county": "Queens County",
      "lat": 46.35,
      "lng": -63.35,
      "pop": 390,
      "score": 48.4,
      "status": "BUILT"
    },
    {
      "name": "Hunter River",
      "code": "VILG",
      "county": "Queens County",
      "lat": 46.354948,
      "lng": -63.34898,
      "pop": 390,
      "score": 50.4,
      "status": "BUILT"
    },
    {
      "name": "Huntley",
      "code": "UNP",
      "county": "Prince County",
      "lat": 46.846032,
      "lng": -64.084172,
      "pop": null,
      "score": 33.3,
      "status": "DEFERRED"
    },
    {
      "name": "Indian River",
      "code": "UNP",
      "county": "Prince County",
      "lat": 46.477143,
      "lng": -63.687276,
      "pop": null,
      "score": 34.6,
      "status": "DEFERRED"
    },
    {
      "name": "Inkerman",
      "code": "VILG",
      "county": "Queens County",
      "lat": 46.366667,
      "lng": -63.4,
      "pop": null,
      "score": 36.2,
      "status": "DEFERRED"
    },
    {
      "name": "Inverness",
      "code": "UNP",
      "county": "Prince County",
      "lat": 46.650598,
      "lng": -64.032312,
      "pop": null,
      "score": 34,
      "status": "DEFERRED"
    },
    {
      "name": "Iona",
      "code": "UNP",
      "county": "Queens County",
      "lat": 46.098131,
      "lng": -62.805318,
      "pop": null,
      "score": 34.1,
      "status": "DEFERRED"
    },
    {
      "name": "Iris",
      "code": "UNP",
      "county": "Kings County",
      "lat": 46.016228,
      "lng": -62.690698,
      "pop": null,
      "score": 33.8,
      "status": "DEFERRED"
    },
    {
      "name": "Irishtown",
      "code": "UNP",
      "county": "Queens County",
      "lat": 46.499737,
      "lng": -63.589557,
      "pop": null,
      "score": 34.4,
      "status": "DEFERRED"
    },
    {
      "name": "Johnstons River",
      "code": "UNP",
      "county": "Queens County",
      "lat": 46.269593,
      "lng": -63.018221,
      "pop": 371,
      "score": 48.7,
      "status": "DEFERRED"
    },
    {
      "name": "Judes Point",
      "code": "UNP",
      "county": "Prince County",
      "lat": 46.95291,
      "lng": -64.005702,
      "pop": null,
      "score": 33.1,
      "status": "DEFERRED"
    },
    {
      "name": "Kelly Road",
      "code": "UNP",
      "county": "Prince County",
      "lat": 46.724254,
      "lng": -64.130726,
      "pop": null,
      "score": 33.6,
      "status": "DEFERRED"
    },
    {
      "name": "Kellys Cross",
      "code": "UNP",
      "county": "Queens County",
      "lat": 46.270187,
      "lng": -63.447151,
      "pop": null,
      "score": 34.2,
      "status": "DEFERRED"
    },
    {
      "name": "Kelvin",
      "code": "UNP",
      "county": "Prince County",
      "lat": 46.415574,
      "lng": -63.616561,
      "pop": null,
      "score": 34.6,
      "status": "DEFERRED"
    },
    {
      "name": "Kelvin Grove",
      "code": "UNP",
      "county": "Prince County",
      "lat": 46.410214,
      "lng": -63.643602,
      "pop": null,
      "score": 34.7,
      "status": "DEFERRED"
    },
    {
      "name": "Kensington",
      "code": "TOWN",
      "county": "Prince County",
      "lat": 46.436664,
      "lng": -63.637353,
      "pop": 1812,
      "score": 57.8,
      "status": "BUILT"
    },
    {
      "name": "Keppoch",
      "code": "UNP",
      "county": "Queens County",
      "lat": 46.197778,
      "lng": -63.111111,
      "pop": null,
      "score": 34.9,
      "status": "DEFERRED"
    },
    {
      "name": "Kildare Capes",
      "code": "UNP",
      "county": "Prince County",
      "lat": 46.901022,
      "lng": -63.98186,
      "pop": null,
      "score": 33.2,
      "status": "DEFERRED"
    },
    {
      "name": "Kilmuir",
      "code": "UNP",
      "county": "Kings County",
      "lat": 46.120508,
      "lng": -62.66652,
      "pop": null,
      "score": 33.9,
      "status": "DEFERRED"
    },
    {
      "name": "Kingsboro",
      "code": "UNP",
      "county": "Kings County",
      "lat": 46.392975,
      "lng": -62.106607,
      "pop": null,
      "score": 32.6,
      "status": "DEFERRED"
    },
    {
      "name": "Kingston",
      "code": "VILG",
      "county": "Queens County",
      "lat": 46.26404,
      "lng": -63.32842,
      "pop": 1111,
      "score": 54.7,
      "status": "BUILT"
    },
    {
      "name": "Kingston",
      "code": "UNP",
      "county": "Queens County",
      "lat": 46.262922,
      "lng": -63.27739,
      "pop": 1111,
      "score": 52.8,
      "status": "BUILT"
    },
    {
      "name": "Kinkora",
      "code": "UNP",
      "county": "Prince County",
      "lat": 46.316667,
      "lng": -63.6,
      "pop": 1285,
      "score": 53,
      "status": "BUILT"
    },
    {
      "name": "Kinkora",
      "code": "VILG",
      "county": "Prince County",
      "lat": 46.322741,
      "lng": -63.603098,
      "pop": 1285,
      "score": 55,
      "status": "BUILT"
    },
    {
      "name": "Kinlock",
      "code": "UNP",
      "county": "Queens County",
      "lat": 46.204167,
      "lng": -63.090278,
      "pop": null,
      "score": 34.9,
      "status": "DEFERRED"
    },
    {
      "name": "Kinross",
      "code": "UNP",
      "county": "Queens County",
      "lat": 46.157889,
      "lng": -62.809265,
      "pop": null,
      "score": 34.2,
      "status": "DEFERRED"
    },
    {
      "name": "Knutsford",
      "code": "UNP",
      "county": "Prince County",
      "lat": 46.696978,
      "lng": -64.285767,
      "pop": null,
      "score": 33.5,
      "status": "DEFERRED"
    },
    {
      "name": "Lady Fane",
      "code": "UNP",
      "county": "Prince County",
      "lat": 46.279548,
      "lng": -63.521252,
      "pop": null,
      "score": 34.3,
      "status": "DEFERRED"
    },
    {
      "name": "Lady Slipper",
      "code": "UNP",
      "county": "Prince County",
      "lat": 46.59242,
      "lng": -64.03237,
      "pop": null,
      "score": 34.1,
      "status": "DEFERRED"
    },
    {
      "name": "Lake Verde",
      "code": "UNP",
      "county": "Queens County",
      "lat": 46.233532,
      "lng": -62.880269,
      "pop": null,
      "score": 34.4,
      "status": "DEFERRED"
    },
    {
      "name": "Lakeville",
      "code": "UNP",
      "county": "Kings County",
      "lat": 46.461908,
      "lng": -62.097965,
      "pop": null,
      "score": 32.5,
      "status": "DEFERRED"
    },
    {
      "name": "Launching Place",
      "code": "UNP",
      "county": "Kings County",
      "lat": 46.220219,
      "lng": -62.431192,
      "pop": null,
      "score": 33.4,
      "status": "DEFERRED"
    },
    {
      "name": "Lauretta",
      "code": "UNP",
      "county": "Prince County",
      "lat": 46.857197,
      "lng": -64.15617,
      "pop": null,
      "score": 33.2,
      "status": "DEFERRED"
    },
    {
      "name": "Leards Mill",
      "code": "UNP",
      "county": "Kings County",
      "lat": 46.30008,
      "lng": -62.710632,
      "pop": null,
      "score": 34,
      "status": "DEFERRED"
    },
    {
      "name": "Lennox Island",
      "code": "UNP",
      "county": "Prince County",
      "lat": 46.602089,
      "lng": -63.858229,
      "pop": null,
      "score": 34.3,
      "status": "DEFERRED"
    },
    {
      "name": "Leoville",
      "code": "UNP",
      "county": "Prince County",
      "lat": 46.929071,
      "lng": -64.122931,
      "pop": null,
      "score": 33,
      "status": "DEFERRED"
    },
    {
      "name": "Lewes",
      "code": "UNP",
      "county": "Queens County",
      "lat": 46.053836,
      "lng": -62.743553,
      "pop": null,
      "score": 33.9,
      "status": "DEFERRED"
    },
    {
      "name": "Lewis Point",
      "code": "UNP",
      "county": "Queens County",
      "lat": 46.251944,
      "lng": -63.161944,
      "pop": null,
      "score": 34.9,
      "status": "DEFERRED"
    },
    {
      "name": "Linkletter",
      "code": "VILG",
      "county": "Prince County",
      "lat": 46.406927,
      "lng": -63.835972,
      "pop": 315,
      "score": 50.5,
      "status": "BUILT"
    },
    {
      "name": "Little Harbour",
      "code": "UNP",
      "county": "Kings County",
      "lat": 46.356865,
      "lng": -62.192088,
      "pop": null,
      "score": 32.8,
      "status": "DEFERRED"
    },
    {
      "name": "Little Pond",
      "code": "UNP",
      "county": "Kings County",
      "lat": 46.284195,
      "lng": -62.410734,
      "pop": null,
      "score": 33.3,
      "status": "DEFERRED"
    },
    {
      "name": "Little Sands",
      "code": "UNP",
      "county": "Kings County",
      "lat": 45.96596,
      "lng": -62.647043,
      "pop": null,
      "score": 33.6,
      "status": "DEFERRED"
    },
    {
      "name": "Little York",
      "code": "UNP",
      "county": "Queens County",
      "lat": 46.316667,
      "lng": -63.1,
      "pop": null,
      "score": 34.7,
      "status": "DEFERRED"
    },
    {
      "name": "Locke Road",
      "code": "UNP",
      "county": "Prince County",
      "lat": 46.716652,
      "lng": -64.313385,
      "pop": null,
      "score": 33.4,
      "status": "DEFERRED"
    },
    {
      "name": "Long Creek",
      "code": "UNP",
      "county": "Queens County",
      "lat": 46.171669,
      "lng": -63.270933,
      "pop": null,
      "score": 34.6,
      "status": "DEFERRED"
    },
    {
      "name": "Long River",
      "code": "UNP",
      "county": "Queens County",
      "lat": 46.490292,
      "lng": -63.543172,
      "pop": null,
      "score": 34.3,
      "status": "DEFERRED"
    },
    {
      "name": "Lorne Valley",
      "code": "UNP",
      "county": "Kings County",
      "lat": 46.266667,
      "lng": -62.683333,
      "pop": null,
      "score": 34,
      "status": "DEFERRED"
    },
    {
      "name": "Lorne Valley",
      "code": "VILG",
      "county": "Kings County",
      "lat": 46.269002,
      "lng": -62.692705,
      "pop": null,
      "score": 36,
      "status": "DEFERRED"
    },
    {
      "name": "Lot 11 and Area",
      "code": "VILG",
      "county": "Prince County",
      "lat": 46.666667,
      "lng": -63.966667,
      "pop": 617,
      "score": 51,
      "status": "DEFERRED"
    },
    {
      "name": "Low Point",
      "code": "UNP",
      "county": "Prince County",
      "lat": 46.581982,
      "lng": -63.862205,
      "pop": null,
      "score": 34.3,
      "status": "DEFERRED"
    },
    {
      "name": "Lower Bedeque",
      "code": "UNP",
      "county": "Prince County",
      "lat": 46.344125,
      "lng": -63.764177,
      "pop": null,
      "score": 34.8,
      "status": "DEFERRED"
    },
    {
      "name": "Lower Darnley",
      "code": "UNP",
      "county": "Prince County",
      "lat": 46.555439,
      "lng": -63.650379,
      "pop": null,
      "score": 34.4,
      "status": "DEFERRED"
    },
    {
      "name": "Lower Freetown",
      "code": "UNP",
      "county": "Prince County",
      "lat": 46.363692,
      "lng": -63.667548,
      "pop": null,
      "score": 34.7,
      "status": "DEFERRED"
    },
    {
      "name": "Lower Hamilton",
      "code": "UNP",
      "county": "Prince County",
      "lat": 46.506469,
      "lng": -63.702595,
      "pop": null,
      "score": 34.6,
      "status": "DEFERRED"
    },
    {
      "name": "Lower Malpeque",
      "code": "UNP",
      "county": "Prince County",
      "lat": 46.540199,
      "lng": -63.692323,
      "pop": null,
      "score": 34.5,
      "status": "DEFERRED"
    },
    {
      "name": "Lower Montague",
      "code": "VILG",
      "county": "Kings County",
      "lat": 46.15756,
      "lng": -62.59206,
      "pop": null,
      "score": 35.7,
      "status": "DEFERRED"
    },
    {
      "name": "Lower Montague",
      "code": "UNP",
      "county": "Kings County",
      "lat": 46.16609,
      "lng": -62.559095,
      "pop": null,
      "score": 33.7,
      "status": "DEFERRED"
    },
    {
      "name": "Lower New Annan",
      "code": "UNP",
      "county": "Prince County",
      "lat": 46.427627,
      "lng": -63.715182,
      "pop": null,
      "score": 34.8,
      "status": "DEFERRED"
    },
    {
      "name": "Lower Newtown",
      "code": "UNP",
      "county": "Queens County",
      "lat": 46.109453,
      "lng": -62.86092,
      "pop": null,
      "score": 34.3,
      "status": "DEFERRED"
    },
    {
      "name": "Lower Rollo Bay",
      "code": "UNP",
      "county": "Kings County",
      "lat": 46.343998,
      "lng": -62.301776,
      "pop": null,
      "score": 33.1,
      "status": "DEFERRED"
    },
    {
      "name": "Lower Tryon",
      "code": "UNP",
      "county": "Prince County",
      "lat": 46.226598,
      "lng": -63.549007,
      "pop": null,
      "score": 34.2,
      "status": "DEFERRED"
    },
    {
      "name": "Loyalist",
      "code": "UNP",
      "county": "Queens County",
      "lat": 46.301229,
      "lng": -63.239901,
      "pop": null,
      "score": 34.7,
      "status": "DEFERRED"
    },
    {
      "name": "Lyndale",
      "code": "UNP",
      "county": "Queens County",
      "lat": 46.15,
      "lng": -62.783333,
      "pop": null,
      "score": 34.2,
      "status": "DEFERRED"
    },
    {
      "name": "MacDougall",
      "code": "UNP",
      "county": "Prince County",
      "lat": 46.509714,
      "lng": -63.937928,
      "pop": null,
      "score": 34.5,
      "status": "DEFERRED"
    },
    {
      "name": "Malpeque",
      "code": "UNP",
      "county": "Prince County",
      "lat": 46.526242,
      "lng": -63.6862,
      "pop": null,
      "score": 34.5,
      "status": "DEFERRED"
    },
    {
      "name": "Malpeque Bay",
      "code": "VILG",
      "county": "Prince County",
      "lat": 46.51286,
      "lng": -63.65577,
      "pop": 1191,
      "score": 54.8,
      "status": "BUILT"
    },
    {
      "name": "Maple Hill",
      "code": "UNP",
      "county": "Queens County",
      "lat": 46.350229,
      "lng": -62.860571,
      "pop": null,
      "score": 34.3,
      "status": "DEFERRED"
    },
    {
      "name": "Maple Plains",
      "code": "UNP",
      "county": "Prince County",
      "lat": 46.29208,
      "lng": -63.55858,
      "pop": null,
      "score": 34.4,
      "status": "DEFERRED"
    },
    {
      "name": "Maplewood",
      "code": "UNP",
      "county": "Queens County",
      "lat": 46.283333,
      "lng": -63.45,
      "pop": null,
      "score": 34.2,
      "status": "DEFERRED"
    },
    {
      "name": "Margate",
      "code": "UNP",
      "county": "Prince County",
      "lat": 46.458903,
      "lng": -63.588387,
      "pop": null,
      "score": 34.5,
      "status": "DEFERRED"
    },
    {
      "name": "Marie",
      "code": "UNP",
      "county": "Kings County",
      "lat": 46.405038,
      "lng": -62.659105,
      "pop": null,
      "score": 33.8,
      "status": "DEFERRED"
    },
    {
      "name": "Marshfield",
      "code": "UNP",
      "county": "Queens County",
      "lat": 46.30281,
      "lng": -63.069044,
      "pop": null,
      "score": 34.7,
      "status": "DEFERRED"
    },
    {
      "name": "Martinvale",
      "code": "UNP",
      "county": "Kings County",
      "lat": 46.295526,
      "lng": -62.64362,
      "pop": null,
      "score": 33.9,
      "status": "DEFERRED"
    },
    {
      "name": "Maximeville",
      "code": "UNP",
      "county": "Prince County",
      "lat": 46.431947,
      "lng": -64.134635,
      "pop": null,
      "score": 34.2,
      "status": "DEFERRED"
    },
    {
      "name": "Mayfield",
      "code": "UNP",
      "county": "Queens County",
      "lat": 46.449234,
      "lng": -63.355948,
      "pop": null,
      "score": 34.1,
      "status": "DEFERRED"
    },
    {
      "name": "McNeills Mills",
      "code": "UNP",
      "county": "Prince County",
      "lat": 46.633142,
      "lng": -63.96816,
      "pop": null,
      "score": 34.1,
      "status": "DEFERRED"
    },
    {
      "name": "Meadow Bank",
      "code": "VILG",
      "county": "Queens County",
      "lat": 46.200913,
      "lng": -63.228226,
      "pop": null,
      "score": 36.7,
      "status": "DEFERRED"
    },
    {
      "name": "Meadowbank",
      "code": "VILG",
      "county": "Queens County",
      "lat": 46.2,
      "lng": -63.233333,
      "pop": null,
      "score": 36.7,
      "status": "DEFERRED"
    },
    {
      "name": "Melville",
      "code": "UNP",
      "county": "Queens County",
      "lat": 46.019323,
      "lng": -62.827015,
      "pop": null,
      "score": 34,
      "status": "DEFERRED"
    },
    {
      "name": "Mermaid",
      "code": "UNP",
      "county": "Queens County",
      "lat": 46.262002,
      "lng": -63.036255,
      "pop": null,
      "score": 34.8,
      "status": "DEFERRED"
    },
    {
      "name": "Middleton",
      "code": "UNP",
      "county": "Prince County",
      "lat": 46.321658,
      "lng": -63.644979,
      "pop": null,
      "score": 34.6,
      "status": "DEFERRED"
    },
    {
      "name": "Midgell",
      "code": "UNP",
      "county": "Kings County",
      "lat": 46.413493,
      "lng": -62.637141,
      "pop": null,
      "score": 33.7,
      "status": "DEFERRED"
    },
    {
      "name": "Milburn",
      "code": "UNP",
      "county": "Kings County",
      "lat": 46.362283,
      "lng": -62.636622,
      "pop": null,
      "score": 33.8,
      "status": "DEFERRED"
    },
    {
      "name": "Milburn",
      "code": "UNP",
      "county": "Prince County",
      "lat": 46.662155,
      "lng": -64.274066,
      "pop": null,
      "score": 33.6,
      "status": "DEFERRED"
    },
    {
      "name": "Mill River East",
      "code": "UNP",
      "county": "Prince County",
      "lat": 46.766063,
      "lng": -64.145352,
      "pop": null,
      "score": 33.5,
      "status": "DEFERRED"
    },
    {
      "name": "Mill Road",
      "code": "UNP",
      "county": "Prince County",
      "lat": 46.745911,
      "lng": -64.124829,
      "pop": null,
      "score": 33.6,
      "status": "DEFERRED"
    },
    {
      "name": "Mill Valley",
      "code": "UNP",
      "county": "Prince County",
      "lat": 46.402004,
      "lng": -63.627804,
      "pop": null,
      "score": 34.6,
      "status": "DEFERRED"
    },
    {
      "name": "Millcove",
      "code": "UNP",
      "county": "Queens County",
      "lat": 46.357491,
      "lng": -63.033627,
      "pop": null,
      "score": 34.5,
      "status": "DEFERRED"
    },
    {
      "name": "Mills Point",
      "code": "UNP",
      "county": "Prince County",
      "lat": 46.450349,
      "lng": -63.705311,
      "pop": null,
      "score": 34.7,
      "status": "DEFERRED"
    },
    {
      "name": "Milltown Cross",
      "code": "UNP",
      "county": "Kings County",
      "lat": 46.103567,
      "lng": -62.622256,
      "pop": null,
      "score": 33.8,
      "status": "DEFERRED"
    },
    {
      "name": "Millvale",
      "code": "UNP",
      "county": "Queens County",
      "lat": 46.410327,
      "lng": -63.422598,
      "pop": null,
      "score": 34.2,
      "status": "DEFERRED"
    },
    {
      "name": "Millview",
      "code": "UNP",
      "county": "Queens County",
      "lat": 46.199092,
      "lng": -62.874977,
      "pop": null,
      "score": 34.4,
      "status": "DEFERRED"
    },
    {
      "name": "Milo",
      "code": "UNP",
      "county": "Prince County",
      "lat": 46.647584,
      "lng": -64.223843,
      "pop": null,
      "score": 33.7,
      "status": "DEFERRED"
    },
    {
      "name": "Milton Station",
      "code": "UNP",
      "county": "Queens County",
      "lat": 46.302104,
      "lng": -63.211921,
      "pop": null,
      "score": 34.7,
      "status": "DEFERRED"
    },
    {
      "name": "Miltonvale Park",
      "code": "VILG",
      "county": "Queens County",
      "lat": 46.31422,
      "lng": -63.22812,
      "pop": 1196,
      "score": 55,
      "status": "BUILT"
    },
    {
      "name": "Miminegash",
      "code": "UNP",
      "county": "Prince County",
      "lat": 46.881,
      "lng": -64.226,
      "pop": 1089,
      "score": 51.2,
      "status": "BUILT"
    },
    {
      "name": "Miscouche",
      "code": "VILG",
      "county": "Prince County",
      "lat": 46.432615,
      "lng": -63.868255,
      "pop": 992,
      "score": 52.7,
      "status": "BUILT"
    },
    {
      "name": "Mont-Carmel",
      "code": "UNP",
      "county": "Prince County",
      "lat": 46.4,
      "lng": -64.033333,
      "pop": null,
      "score": 34.4,
      "status": "DEFERRED"
    },
    {
      "name": "Montague",
      "code": "TOWN",
      "county": "Kings County",
      "lat": 46.169188,
      "lng": -62.650681,
      "pop": 74,
      "score": 46.6,
      "status": "BUILT"
    },
    {
      "name": "Montague Junction",
      "code": "UNP",
      "county": "Kings County",
      "lat": 46.221017,
      "lng": -62.603026,
      "pop": null,
      "score": 33.8,
      "status": "DEFERRED"
    },
    {
      "name": "Monticello",
      "code": "UNP",
      "county": "Kings County",
      "lat": 46.460953,
      "lng": -62.449163,
      "pop": null,
      "score": 33.3,
      "status": "DEFERRED"
    },
    {
      "name": "Montrose",
      "code": "UNP",
      "county": "Prince County",
      "lat": 46.868668,
      "lng": -64.065641,
      "pop": null,
      "score": 33.3,
      "status": "DEFERRED"
    },
    {
      "name": "Morell",
      "code": "VILG",
      "county": "Kings County",
      "lat": 46.416226,
      "lng": -62.70506,
      "pop": 1209,
      "score": 54.2,
      "status": "BUILT"
    },
    {
      "name": "Morell East",
      "code": "UNP",
      "county": "Kings County",
      "lat": 46.389843,
      "lng": -62.683144,
      "pop": null,
      "score": 33.9,
      "status": "DEFERRED"
    },
    {
      "name": "Mount Albion",
      "code": "UNP",
      "county": "Queens County",
      "lat": 46.229927,
      "lng": -62.944547,
      "pop": null,
      "score": 34.6,
      "status": "DEFERRED"
    },
    {
      "name": "Mount Buchanan",
      "code": "UNP",
      "county": "Queens County",
      "lat": 46.080774,
      "lng": -62.93792,
      "pop": null,
      "score": 34.3,
      "status": "DEFERRED"
    },
    {
      "name": "Mount Herbert",
      "code": "UNP",
      "county": "Queens County",
      "lat": 46.230375,
      "lng": -63.039398,
      "pop": null,
      "score": 34.8,
      "status": "DEFERRED"
    },
    {
      "name": "Mount Hope",
      "code": "UNP",
      "county": "Kings County",
      "lat": 46.3675,
      "lng": -62.5,
      "pop": null,
      "score": 33.5,
      "status": "DEFERRED"
    },
    {
      "name": "Mount Mellick",
      "code": "UNP",
      "county": "Queens County",
      "lat": 46.20273,
      "lng": -62.946273,
      "pop": null,
      "score": 34.6,
      "status": "DEFERRED"
    },
    {
      "name": "Mount Pleasant",
      "code": "UNP",
      "county": "Prince County",
      "lat": 46.580557,
      "lng": -64.008845,
      "pop": null,
      "score": 34.2,
      "status": "DEFERRED"
    },
    {
      "name": "Mount Royal",
      "code": "UNP",
      "county": "Prince County",
      "lat": 46.682682,
      "lng": -64.260282,
      "pop": null,
      "score": 33.5,
      "status": "DEFERRED"
    },
    {
      "name": "Mount Stewart",
      "code": "VILG",
      "county": "Queens County",
      "lat": 46.367607,
      "lng": -62.875153,
      "pop": 226,
      "score": 49.2,
      "status": "BUILT"
    },
    {
      "name": "Mount Tryon",
      "code": "VILG",
      "county": "Queens County",
      "lat": 46.283333,
      "lng": -63.583333,
      "pop": null,
      "score": 36.4,
      "status": "DEFERRED"
    },
    {
      "name": "Mount Vernon",
      "code": "UNP",
      "county": "Queens County",
      "lat": 46.015998,
      "lng": -62.743547,
      "pop": null,
      "score": 33.9,
      "status": "DEFERRED"
    },
    {
      "name": "Muddy Creek",
      "code": "UNP",
      "county": "Prince County",
      "lat": 46.4225,
      "lng": -63.968056,
      "pop": null,
      "score": 34.6,
      "status": "DEFERRED"
    },
    {
      "name": "Munns Road",
      "code": "UNP",
      "county": "Kings County",
      "lat": 46.419778,
      "lng": -62.088497,
      "pop": null,
      "score": 32.5,
      "status": "DEFERRED"
    },
    {
      "name": "Murray Harbour",
      "code": "VILG",
      "county": "Kings County",
      "lat": 46.005994,
      "lng": -62.527523,
      "pop": 628,
      "score": 50.4,
      "status": "BUILT"
    },
    {
      "name": "Murray Harbour North",
      "code": "UNP",
      "county": "Kings County",
      "lat": 46.056179,
      "lng": -62.485637,
      "pop": null,
      "score": 33.4,
      "status": "DEFERRED"
    },
    {
      "name": "Murray River",
      "code": "VILG",
      "county": "Kings County",
      "lat": 46.016962,
      "lng": -62.615508,
      "pop": 337,
      "score": 49.4,
      "status": "BUILT"
    },
    {
      "name": "Murray Road",
      "code": "UNP",
      "county": "Prince County",
      "lat": 46.702879,
      "lng": -63.981728,
      "pop": null,
      "score": 33.9,
      "status": "DEFERRED"
    },
    {
      "name": "Nail Pond",
      "code": "UNP",
      "county": "Prince County",
      "lat": 46.984722,
      "lng": -64.063889,
      "pop": null,
      "score": 32.9,
      "status": "DEFERRED"
    },
    {
      "name": "Naufrage",
      "code": "UNP",
      "county": "Kings County",
      "lat": 46.467641,
      "lng": -62.416677,
      "pop": null,
      "score": 33.2,
      "status": "DEFERRED"
    },
    {
      "name": "New Acadia",
      "code": "UNP",
      "county": "Kings County",
      "lat": 46.399866,
      "lng": -62.396156,
      "pop": null,
      "score": 33.2,
      "status": "DEFERRED"
    },
    {
      "name": "New Annan",
      "code": "UNP",
      "county": "Prince County",
      "lat": 46.419701,
      "lng": -63.711734,
      "pop": null,
      "score": 34.8,
      "status": "DEFERRED"
    },
    {
      "name": "New Argyle",
      "code": "UNP",
      "county": "Queens County",
      "lat": 46.169767,
      "lng": -63.30419,
      "pop": null,
      "score": 34.5,
      "status": "DEFERRED"
    },
    {
      "name": "New Dominion",
      "code": "UNP",
      "county": "Queens County",
      "lat": 46.174905,
      "lng": -63.240193,
      "pop": null,
      "score": 34.7,
      "status": "DEFERRED"
    },
    {
      "name": "New Glasgow",
      "code": "UNP",
      "county": "Queens County",
      "lat": 46.410492,
      "lng": -63.349516,
      "pop": 4277,
      "score": 55.1,
      "status": "BUILT"
    },
    {
      "name": "New Glasgow Mills",
      "code": "UNP",
      "county": "Queens County",
      "lat": 46.434239,
      "lng": -63.34778,
      "pop": null,
      "score": 34.2,
      "status": "DEFERRED"
    },
    {
      "name": "New Harmony",
      "code": "UNP",
      "county": "Kings County",
      "lat": 46.416667,
      "lng": -62.233333,
      "pop": null,
      "score": 32.9,
      "status": "DEFERRED"
    },
    {
      "name": "New Haven",
      "code": "UNP",
      "county": "Queens County",
      "lat": 46.219239,
      "lng": -63.297656,
      "pop": null,
      "score": 34.6,
      "status": "DEFERRED"
    },
    {
      "name": "New Haven-Riverdale",
      "code": "VILG",
      "county": "Queens County",
      "lat": 46.22672,
      "lng": -63.32409,
      "pop": null,
      "score": 36.5,
      "status": "DEFERRED"
    },
    {
      "name": "New London",
      "code": "UNP",
      "county": "Queens County",
      "lat": 46.464494,
      "lng": -63.511189,
      "pop": 1521,
      "score": 53.1,
      "status": "BUILT"
    },
    {
      "name": "New Perth",
      "code": "UNP",
      "county": "Kings County",
      "lat": 46.212137,
      "lng": -62.698454,
      "pop": null,
      "score": 34,
      "status": "DEFERRED"
    },
    {
      "name": "New Zealand",
      "code": "UNP",
      "county": "Kings County",
      "lat": 46.409989,
      "lng": -62.313048,
      "pop": null,
      "score": 33,
      "status": "DEFERRED"
    },