Location_ID,Location_Name,Location_Type,County,Region,Province,Latitude,Longitude,Coord_Source,Postal_FSA,Population_2021_Census,Population_2016_Census,Pop_Change_Pct_2016_2021,Dwellings_2021,Occupied_Dwellings_2021,Seasonal_Vacant_Pct,Land_Area_Km2,Density_Per_Km2,CMA_or_MIZ,Dist_Moncton_Km,Dist_SaintJohn_Km,SEO_Priority_Score,URL_Slug,Page_URL,Status,Defer_Reason,Nearby_Links,Data_Sources,Verification_Status
NB-0001,Moncton,City,Westmorland,Greater Moncton & Southeast,New Brunswick,46.09948,-64.79980,CGN:DADHJ,,79470,71889,10.5,37318,35118,5.9,140.67,564.9,Moncton,2,134,72.7,moncton,/areas/moncton,BUILT,,/areas/riverview (5km) | /areas/dieppe (9km) | /areas/salisbury (20km) | /areas/memramcook (21km) | /areas/hillsborough (23km),StatCan 2021 Census 98-10-0002; NRCan CGN; StatCan GAF 92-151-X,Verified
NB-0002,Saint John,City,Saint John,Fundy & Greater Saint John,New Brunswick,45.25917,-66.03889,CGN:DAEGW,,69895,67575,3.4,33908,31825,6.1,315.59,221.5,Saint John,134,2,72.5,saint-john,/areas/saint-john,BUILT,,/areas/rothesay (15km) | /areas/grand-bay-westfield (19km) | /areas/quispamsis (22km) | /areas/hampton (33km) | /areas/norton (50km),StatCan 2021 Census 98-10-0002; NRCan CGN; StatCan GAF 92-151-X,Verified
NB-0003,Dieppe,City,Westmorland,Greater Moncton & Southeast,New Brunswick,46.07833,-64.68861,CGN:DBAKL,,28114,25384,10.8,11993,11570,3.5,77.02,365,Moncton,7,139,70.5,dieppe,/areas/dieppe,BUILT,,/areas/moncton (9km) | /areas/riverview (10km) | /areas/memramcook (14km) | /areas/hillsborough (18km) | /areas/shediac (20km),StatCan 2021 Census 98-10-0002; NRCan CGN; StatCan GAF 92-151-X,Verified
NB-0004,Fredericton,City,York,Capital & River Valley,New Brunswick,45.94528,-66.66667,CGN:DAFMJ,,63116,58721,7.5,29892,28478,4.7,133.93,471.3,Fredericton,147,88,69.7,fredericton,/areas/fredericton,BUILT,,/areas/new-maryland (7km) | /areas/hanwell (15km) | /areas/oromocto (19km) | /areas/tracy (30km) | /areas/fredericton-junction (32km),StatCan 2021 Census 98-10-0002; NRCan CGN; StatCan GAF 92-151-X,Verified
NB-0005,Riverview,Town,Albert,Greater Moncton & Southeast,New Brunswick,46.05444,-64.81722,CGN:DBBTG,,20584,19667,4.7,8797,8651,1.7,34.1,603.7,Moncton,5,130,66.9,riverview,/areas/riverview,BUILT,,/areas/moncton (5km) | /areas/dieppe (10km) | /areas/salisbury (18km) | /areas/hillsborough (20km) | /areas/memramcook (20km),StatCan 2021 Census 98-10-0002; NRCan CGN; StatCan GAF 92-151-X,Verified
NB-0006,Miramichi,City,Northumberland,Miramichi River Region,New Brunswick,47.03677,-65.17910,CGN:DAVNA,,17692,17537,0.9,8484,7990,5.8,178.98,98.8,Miramichi,110,208,65.5,miramichi,/areas/miramichi,BUILT,,/areas/neguac (24km) | /areas/saint-louis-de-kent (37km) | /areas/rogersville (39km) | /areas/richibucto (46km) | /areas/rexton (50km),StatCan 2021 Census 98-10-0002; NRCan CGN; StatCan GAF 92-151-X,Verified
NB-0007,Quispamsis,Town,Kings,Fundy & Greater Saint John,New Brunswick,45.44574,-65.92874,CGN:DAVTW,,18768,18245,2.9,6985,6855,1.9,56.97,329.4,Saint John,114,22,65.2,quispamsis,/areas/quispamsis,BUILT,,/areas/rothesay (8km) | /areas/hampton (11km) | /areas/saint-john (22km) | /areas/norton (27km) | /areas/grand-bay-westfield (28km),StatCan 2021 Census 98-10-0002; NRCan CGN; StatCan GAF 92-151-X,Verified
NB-0008,Rothesay,Town,Kings,Fundy & Greater Saint John,New Brunswick,45.38028,-65.96861,CGN:DACOY,,11977,11659,2.7,5007,4873,2.7,34.59,346.2,Saint John,121,14,64.6,rothesay,/areas/rothesay,BUILT,,/areas/quispamsis (8km) | /areas/saint-john (15km) | /areas/hampton (19km) | /areas/grand-bay-westfield (23km) | /areas/norton (35km),StatCan 2021 Census 98-10-0002; NRCan CGN; StatCan GAF 92-151-X,Verified
NB-0009,Tracadie,Regional Municipality,Gloucester,Acadian Peninsula & Chaleur,New Brunswick,47.51698,-64.91205,CGN:DATGK,,16043,16114,-0.4,7539,7113,5.7,516.55,31.1,Moderate MIZ,159,265,63.8,tracadie,/areas/tracadie,BUILT,,/areas/caraquet (28km) | /areas/shippagan (28km) | /areas/neguac (33km) | /areas/lameque (39km) | /areas/bathurst (55km),StatCan 2021 Census 98-10-0002; NRCan CGN; StatCan GAF 92-151-X,Verified
NB-0010,Shediac,Town,Westmorland,Greater Moncton & Southeast,New Brunswick,46.22127,-64.53977,CGN:DACUC,,7535,6664,13.1,3447,3293,4.5,64,117.7,Strong MIZ,24,158,63.3,shediac,/areas/shediac,BUILT,,/areas/cocagne (14km) | /areas/beaubassin-east (16km) | /areas/dieppe (20km) | /areas/cap-pele (21km) | /areas/saint-antoine (23km),StatCan 2021 Census 98-10-0002; NRCan CGN; StatCan GAF 92-151-X,Verified
NB-0011,Beaubassin East / Beaubassin-est,Rural Community,Westmorland,Greater Moncton & Southeast,New Brunswick,46.20067,-64.34032,GAF-DA-avg,,6718,6376,5.4,3368,2855,15.2,291.02,23.1,Strong MIZ,36,169,62.7,beaubassin-east,/areas/beaubassin-east,BUILT,,/areas/cap-pele (6km) | /areas/shediac (16km) | /areas/cocagne (26km) | /areas/dieppe (30km) | /areas/memramcook (32km),StatCan 2021 Census 98-10-0002; NRCan CGN; StatCan GAF 92-151-X,Verified
NB-0012,Bathurst,City,Gloucester,Acadian Peninsula & Chaleur,New Brunswick,47.62611,-65.62833,CGN:DAFQX,,12157,11897,2.2,6445,5824,9.6,91.62,132.7,Bathurst,183,264,62.5,bathurst,/areas/bathurst,BUILT,,/areas/beresford (11km) | /areas/petit-rocher (19km) | /areas/caraquet (53km) | /areas/tracadie (55km) | /areas/neguac (59km),StatCan 2021 Census 98-10-0002; NRCan CGN; StatCan GAF 92-151-X,Verified
NB-0013,Sackville,Town,Westmorland,Greater Moncton & Southeast,New Brunswick,45.91861,-64.38583,CGN:DAEAM,,6099,5331,14.4,3047,2689,11.7,73.91,82.5,Moderate MIZ,36,149,62.5,sackville,/areas/sackville,BUILT,,/areas/dorchester (10km) | /areas/memramcook (17km) | /areas/hillsborough (20km) | /areas/dieppe (29km) | /areas/beaubassin-east (32km),StatCan 2021 Census 98-10-0002; NRCan CGN; StatCan GAF 92-151-X,Verified
NB-0014,Oromocto,Town,Sunbury,Capital & River Valley,New Brunswick,45.84760,-66.47085,CGN:DATWJ,,9045,9223,-1.9,3897,3663,6,22.36,404.5,Moderate MIZ,134,71,62.3,oromocto,/areas/oromocto,BUILT,,/areas/new-maryland (16km) | /areas/fredericton (19km) | /areas/fredericton-junction (23km) | /areas/gagetown (25km) | /areas/tracy (25km),StatCan 2021 Census 98-10-0002; NRCan CGN; StatCan GAF 92-151-X,Verified
NB-0015,Moncton,Parish,Westmorland,Greater Moncton & Southeast,New Brunswick,46.09948,-64.79980,CGN:DADHJ,,10704,9811,9.1,4291,4190,2.4,564.16,19,Moncton,2,134,60.7,moncton-westmorland,,DEFERRED,parish = administrative geography; name-clash/cannibalization with its municipality; covered by nearby municipal pages,,StatCan 2021 Census 98-10-0002; NRCan CGN; StatCan GAF 92-151-X,Geographic_Verified
NB-0016,Memramcook,Village,Westmorland,Greater Moncton & Southeast,New Brunswick,45.97083,-64.59333,CGN:DBEDZ,,5029,4778,5.3,2147,2081,3.1,186.64,26.9,Moncton,19,138,60.6,memramcook,/areas/memramcook,BUILT,,/areas/hillsborough (7km) | /areas/dorchester (10km) | /areas/dieppe (14km) | /areas/sackville (17km) | /areas/riverview (20km),StatCan 2021 Census 98-10-0002; NRCan CGN; StatCan GAF 92-151-X,Verified
NB-0017,Edmundston,City,Madawaska,Northwest & Madawaska,New Brunswick,47.37722,-68.29444,CGN:DALZZ,,16437,16580,-0.9,8117,7707,5.1,106.84,153.8,Edmundston,304,290,59.9,edmundston,/areas/edmundston,BUILT,,/areas/haut-madawaska (19km) | /areas/saint-andre (49km) | /areas/grand-falls (56km) | /areas/saint-quentin (70km) | /areas/kedgwick (77km),StatCan 2021 Census 98-10-0002; NRCan CGN; StatCan GAF 92-151-X,Verified
NB-0018,Grand Bay-Westfield,Town,Kings,Fundy & Greater Saint John,New Brunswick,45.34056,-66.25389,CGN:DBEFJ,,4967,4964,0.1,2031,1965,3.2,59.82,83,Saint John,142,17,59.7,grand-bay-westfield,/areas/grand-bay-westfield,BUILT,,/areas/saint-john (19km) | /areas/rothesay (23km) | /areas/quispamsis (28km) | /areas/hampton (38km) | /areas/fredericton-junction (46km),StatCan 2021 Census 98-10-0002; NRCan CGN; StatCan GAF 92-151-X,Verified
NB-0019,Campbellton,City,Restigouche,Restigouche & Chaleur Bay,New Brunswick,47.99934,-66.68351,CGN:DAHEI,,7047,6883,2.4,3531,3254,7.8,18.57,379.5,Campbellton (New Brunswick part,257,307,59.2,campbellton,/areas/campbellton,BUILT,,/areas/dalhousie (22km) | /areas/kedgwick (63km) | /areas/petit-rocher (76km) | /areas/saint-quentin (76km) | /areas/beresford (80km),StatCan 2021 Census 98-10-0002; NRCan CGN; StatCan GAF 92-151-X,Verified
NB-0020,Hampton,Town,Kings,Fundy & Greater Saint John,New Brunswick,45.52861,-65.85472,CGN:DAJFU,,4395,4289,2.5,1804,1740,3.5,20.97,209.6,Saint John,104,33,59,hampton,/areas/hampton,BUILT,,/areas/quispamsis (11km) | /areas/norton (17km) | /areas/rothesay (19km) | /areas/cambridge-narrows (33km) | /areas/saint-john (33km),StatCan 2021 Census 98-10-0002; NRCan CGN; StatCan GAF 92-151-X,Verified
NB-0021,Woodstock,Town,Carleton,Capital & River Valley,New Brunswick,46.15222,-67.59833,CGN:DAWNW,,5553,5228,6.2,2622,2486,5.2,14.96,371.1,Weak MIZ,217,154,58.8,woodstock,/areas/woodstock,BUILT,,/areas/hartland (18km) | /areas/florenceville-bristol (33km) | /areas/nackawic (34km) | /areas/mcadam (66km) | /areas/hanwell (70km),StatCan 2021 Census 98-10-0002; NRCan CGN; StatCan GAF 92-151-X,Verified
NB-0022,Shediac,Parish,Westmorland,Greater Moncton & Southeast,New Brunswick,46.22127,-64.53977,CGN:DACUC,,5144,4789,7.4,2976,2302,22.6,178.79,28.8,Strong MIZ,24,158,58.6,shediac-westmorland,,DEFERRED,parish = administrative geography; name-clash/cannibalization with its municipality; covered by nearby municipal pages,,StatCan 2021 Census 98-10-0002; NRCan CGN; StatCan GAF 92-151-X,Geographic_Verified
NB-0023,Cocagne,Rural Community,Kent,Greater Moncton & Southeast,New Brunswick,46.33494,-64.61504,CGN:DAWRW,,2757,2649,4.1,1430,1214,15.1,69.23,39.8,Strong MIZ,30,163,58.1,cocagne,/areas/cocagne,BUILT,,/areas/saint-antoine (11km) | /areas/shediac (14km) | /areas/bouctouche (18km) | /areas/beaubassin-east (26km) | /areas/dieppe (29km),StatCan 2021 Census 98-10-0002; NRCan CGN; StatCan GAF 92-151-X,Verified
NB-0024,Sussex,Town,Kings,Fundy & Greater Saint John,New Brunswick,45.72353,-65.51039,CGN:DASFF,,4440,4282,3.7,2219,2065,6.9,8.9,498.9,Moderate MIZ,70,66,58,sussex,/areas/sussex,BUILT,,/areas/sussex-corner (3km) | /areas/norton (19km) | /areas/hampton (34km) | /areas/petitcodiac (35km) | /areas/cambridge-narrows (37km),StatCan 2021 Census 98-10-0002; NRCan CGN; StatCan GAF 92-151-X,Verified
NB-0025,Bouctouche,Town,Kent,Greater Moncton & Southeast,New Brunswick,46.46833,-64.74028,CGN:DBBXR,,2513,2361,6.4,1188,1094,7.9,18.33,137.1,Moderate MIZ,42,168,57.6,bouctouche,/areas/bouctouche,BUILT,,/areas/saint-antoine (12km) | /areas/cocagne (18km) | /areas/rexton (22km) | /areas/richibucto (26km) | /areas/shediac (31km),StatCan 2021 Census 98-10-0002; NRCan CGN; StatCan GAF 92-151-X,Verified
NB-0026,Lincoln,Parish,Sunbury,Capital & River Valley,New Brunswick,45.90894,-66.58501,CGN:DAPMN,,7519,7177,4.8,3152,3088,2,159.44,47.2,Fredericton,141,82,57.6,lincoln,,DEFERRED,parish = administrative geography; name-clash/cannibalization with its municipality; covered by nearby municipal pages,,StatCan 2021 Census 98-10-0002; NRCan CGN; StatCan GAF 92-151-X,Geographic_Verified
NB-0027,Hanwell,Rural Community,York,Capital & River Valley,New Brunswick,45.85100,-66.80400,CGN:DAJGT,,4743,4700,0.9,1887,1799,4.7,152.06,31.2,Fredericton,159,86,57.5,hanwell,/areas/hanwell,BUILT,,/areas/new-maryland (11km) | /areas/fredericton (15km) | /areas/tracy (22km) | /areas/fredericton-junction (26km) | /areas/oromocto (26km),StatCan 2021 Census 98-10-0002; NRCan CGN; StatCan GAF 92-151-X,Verified
NB-0028,St. Stephen,Town,Charlotte,Fundy & Greater Saint John,New Brunswick,45.18028,-67.29639,CGN:DAZBZ,,4510,4415,2.2,2278,2073,9,13.72,328.7,Moderate MIZ,220,97,57.1,st-stephen,/areas/st-stephen,BUILT,,/areas/saint-andrews (22km) | /areas/st-george (38km) | /areas/blacks-harbour (42km) | /areas/campobello-island (45km) | /areas/mcadam (46km),StatCan 2021 Census 98-10-0002; NRCan CGN; StatCan GAF 92-151-X,Verified
NB-0029,Burton,Parish,Sunbury,Capital & River Valley,New Brunswick,45.86153,-66.44855,CGN:DADQX,,5176,5119,1.1,2074,2002,3.5,258.39,20,Strong MIZ,132,72,57.1,burton,,DEFERRED,parish = administrative geography; name-clash/cannibalization with its municipality; covered by nearby municipal pages,,StatCan 2021 Census 98-10-0002; NRCan CGN; StatCan GAF 92-151-X,Geographic_Verified
NB-0030,Douglas,Parish,York,Capital & River Valley,New Brunswick,45.97832,-66.73108,CGN:DAYVG,,5935,5703,4.1,2357,2270,3.7,1443.31,4.1,Fredericton,151,94,56.7,douglas,,DEFERRED,parish = administrative geography; name-clash/cannibalization with its municipality; covered by nearby municipal pages,,StatCan 2021 Census 98-10-0002; NRCan CGN; StatCan GAF 92-151-X,Geographic_Verified
NB-0031,Saint Marys,Parish,York,Capital & River Valley,New Brunswick,46.04047,-66.58444,GAF-DA-avg,,5084,4837,5.1,2030,1954,3.7,751.9,6.8,Fredericton,139,94,56.4,saint-marys,,DEFERRED,parish = administrative geography; name-clash/cannibalization with its municipality; covered by nearby municipal pages,,StatCan 2021 Census 98-10-0002; NRCan CGN; StatCan GAF 92-151-X,Geographic_Verified
NB-0032,Grand Falls / Grand-Sault,Town,Victoria,Northwest & Madawaska,New Brunswick,47.05250,-67.73500,CGN:DAICU,,5220,5326,-2,2639,2495,5.5,18.04,289.3,Moderate MIZ,250,236,56.2,grand-falls,/areas/grand-falls,BUILT,,/areas/saint-andre (9km) | /areas/edmundston (56km) | /areas/saint-quentin (57km) | /areas/haut-madawaska (66km) | /areas/florenceville-bristol (67km),StatCan 2021 Census 98-10-0002; NRCan CGN; StatCan GAF 92-151-X,Verified
NB-0033,Salisbury,Village,Westmorland,Greater Moncton & Southeast,New Brunswick,46.02885,-65.04329,CGN:DADMB,,2387,2284,4.5,996,972,2.4,13.56,176.1,Moncton,21,116,56.1,salisbury,/areas/salisbury,BUILT,,/areas/petitcodiac (15km) | /areas/riverview (18km) | /areas/moncton (20km) | /areas/dieppe (28km) | /areas/hillsborough (33km),StatCan 2021 Census 98-10-0002; NRCan CGN; StatCan GAF 92-151-X,Verified
NB-0034,Saint Andrews,Town,Charlotte,Fundy & Greater Saint John,New Brunswick,45.07991,-67.05837,CGN:DAEBC,,2048,1786,14.7,1096,921,16,8.35,245.3,Moderate MIZ,210,81,56,saint-andrews,/areas/saint-andrews,BUILT,,/areas/st-george (20km) | /areas/blacks-harbour (22km) | /areas/st-stephen (22km) | /areas/campobello-island (24km) | /areas/grand-manan (46km),StatCan 2021 Census 98-10-0002; NRCan CGN; StatCan GAF 92-151-X,Verified
NB-0035,St. George,Town,Charlotte,Fundy & Greater Saint John,New Brunswick,45.13201,-66.82023,CGN:DAEDP,,1579,1517,4.1,751,698,7.1,16.17,97.7,Moderate MIZ,191,61,56,st-george,/areas/st-george,BUILT,,/areas/blacks-harbour (9km) | /areas/saint-andrews (20km) | /areas/campobello-island (28km) | /areas/st-stephen (38km) | /areas/grand-manan (48km),StatCan 2021 Census 98-10-0002; NRCan CGN; StatCan GAF 92-151-X,Verified
NB-0036,Coverdale,Parish,Albert,Greater Moncton & Southeast,New Brunswick,46.04340,-64.89022,CGN:DBDYQ,,4766,4466,6.7,1919,1868,2.7,236,20.2,Moncton,10,125,55.8,coverdale,,DEFERRED,parish = administrative geography; name-clash/cannibalization with its municipality; covered by nearby municipal pages,,StatCan 2021 Census 98-10-0002; NRCan CGN; StatCan GAF 92-151-X,Geographic_Verified
NB-0037,Richibucto,Town,Kent,Greater Moncton & Southeast,New Brunswick,46.68107,-64.86895,CGN:DAXCB,,1411,1266,11.5,704,649,7.8,11.9,118.6,Moderate MIZ,66,182,55.7,richibucto,/areas/richibucto,BUILT,,/areas/rexton (4km) | /areas/saint-louis-de-kent (10km) | /areas/bouctouche (26km) | /areas/saint-antoine (36km) | /areas/cocagne (43km),StatCan 2021 Census 98-10-0002; NRCan CGN; StatCan GAF 92-151-X,Verified
NB-0038,Cap-Pelé,Village,Westmorland,Greater Moncton & Southeast,New Brunswick,46.21667,-64.26667,CGN:DAZUS,,2441,2425,0.7,1144,1011,11.6,22.96,106.3,Moderate MIZ,42,174,55.5,cap-pele,/areas/cap-pele,BUILT,,/areas/beaubassin-east (6km) | /areas/shediac (21km) | /areas/cocagne (30km) | /areas/sackville (34km) | /areas/dieppe (36km),StatCan 2021 Census 98-10-0002; NRCan CGN; StatCan GAF 92-151-X,Verified
NB-0039,New Maryland,Village,York,Capital & River Valley,New Brunswick,45.87917,-66.66944,CGN:DABPX,,4153,4174,-0.5,1550,1529,1.4,21.25,195.4,Fredericton,148,82,55.4,new-maryland,/areas/new-maryland,BUILT,,/areas/fredericton (7km) | /areas/hanwell (11km) | /areas/oromocto (16km) | /areas/tracy (23km) | /areas/fredericton-junction (24km),StatCan 2021 Census 98-10-0002; NRCan CGN; StatCan GAF 92-151-X,Verified
NB-0040,Dundas,Parish,Kent,Greater Moncton & Southeast,New Brunswick,46.27642,-64.86433,CGN:DAAPP,,4332,3914,10.7,2569,1908,25.7,172.32,25.1,Strong MIZ,22,145,55.3,dundas,,DEFERRED,parish = administrative geography; name-clash/cannibalization with its municipality; covered by nearby municipal pages,,StatCan 2021 Census 98-10-0002; NRCan CGN; StatCan GAF 92-151-X,Geographic_Verified
NB-0041,Saint-Antoine,Village,Kent,Greater Moncton & Southeast,New Brunswick,46.36286,-64.75264,CGN:DAEBL,,1791,1733,3.3,779,743,4.6,6.32,283.6,Strong MIZ,31,158,55.2,saint-antoine,/areas/saint-antoine,BUILT,,/areas/cocagne (11km) | /areas/bouctouche (12km) | /areas/shediac (23km) | /areas/moncton (30km) | /areas/rexton (32km),StatCan 2021 Census 98-10-0002; NRCan CGN; StatCan GAF 92-151-X,Verified
NB-0042,Hillsborough,Village,Albert,Greater Moncton & Southeast,New Brunswick,45.92225,-64.64536,CGN:DAKHP,,1348,1277,5.6,590,559,5.3,12.81,105.2,Moncton,21,132,54.9,hillsborough,/areas/hillsborough,BUILT,,/areas/memramcook (7km) | /areas/dorchester (10km) | /areas/dieppe (18km) | /areas/riverview (20km) | /areas/sackville (20km),StatCan 2021 Census 98-10-0002; NRCan CGN; StatCan GAF 92-151-X,Verified
NB-0043,Salisbury,Parish,Westmorland,Greater Moncton & Southeast,New Brunswick,46.02885,-65.04329,CGN:DADMB,,3377,3388,-0.3,1432,1353,5.5,874,3.9,Strong MIZ,21,116,54.8,salisbury-westmorland,,DEFERRED,parish = administrative geography; name-clash/cannibalization with its municipality; covered by nearby municipal pages,,StatCan 2021 Census 98-10-0002; NRCan CGN; StatCan GAF 92-151-X,Geographic_Verified
NB-0044,Petitcodiac,Village,Westmorland,Greater Moncton & Southeast,New Brunswick,45.93022,-65.16805,CGN:DANGZ,,1476,1383,6.7,630,609,3.3,17.18,85.9,Strong MIZ,35,101,54.7,petitcodiac,/areas/petitcodiac,BUILT,,/areas/salisbury (15km) | /areas/riverview (30km) | /areas/sussex-corner (34km) | /areas/moncton (34km) | /areas/sussex (35km),StatCan 2021 Census 98-10-0002; NRCan CGN; StatCan GAF 92-151-X,Verified
NB-0045,Kingston,Parish,Kings,Fundy & Greater Saint John,New Brunswick,45.50272,-65.97509,CGN:DALRC,,3202,2913,9.9,1631,1354,17,200.41,16,Saint John,113,26,54.5,kingston,,DEFERRED,parish = administrative geography; name-clash/cannibalization with its municipality; covered by nearby municipal pages,,StatCan 2021 Census 98-10-0002; NRCan CGN; StatCan GAF 92-151-X,Geographic_Verified
NB-0046,Upper Miramichi,Rural Community,Northumberland,Miramichi River Region,New Brunswick,46.53229,-66.45290,CGN:DBESS,,2175,2218,-1.9,1187,958,19.3,1832.97,1.2,Moderate MIZ,138,143,54.4,upper-miramichi,/areas/upper-miramichi,BUILT,,/areas/minto (58km) | /areas/chipman (59km) | /areas/fredericton (67km) | /areas/new-maryland (75km) | /areas/oromocto (76km),StatCan 2021 Census 98-10-0002; NRCan CGN; StatCan GAF 92-151-X,Verified
NB-0047,Grand Manan,Village,Charlotte,Fundy & Greater Saint John,New Brunswick,44.69806,-66.82222,CGN:DBEDY,,2595,2360,10,1408,1179,16.3,150.56,17.2,Weak MIZ,222,87,54.3,grand-manan,/areas/grand-manan,BUILT,,/areas/campobello-island (22km) | /areas/blacks-harbour (40km) | /areas/saint-andrews (46km) | /areas/st-george (48km) | /areas/st-stephen (65km),StatCan 2021 Census 98-10-0002; NRCan CGN; StatCan GAF 92-151-X,Verified
NB-0048,Caraquet,Town,Gloucester,Acadian Peninsula & Chaleur,New Brunswick,47.76556,-64.95000,CGN:DAZVA,,4285,4248,0.9,2150,1988,7.5,68.13,62.9,Moderate MIZ,187,290,54.3,caraquet,/areas/caraquet,BUILT,,/areas/shippagan (17km) | /areas/lameque (25km) | /areas/tracadie (28km) | /areas/bathurst (53km) | /areas/beresford (57km),StatCan 2021 Census 98-10-0002; NRCan CGN; StatCan GAF 92-151-X,Verified
NB-0049,Hampton,Parish,Kings,Fundy & Greater Saint John,New Brunswick,45.52861,-65.85472,CGN:DAJFU,,2969,2809,5.7,1216,1165,4.2,121.24,24.5,Saint John,104,33,54.2,hampton-kings,,DEFERRED,parish = administrative geography; name-clash/cannibalization with its municipality; covered by nearby municipal pages,,StatCan 2021 Census 98-10-0002; NRCan CGN; StatCan GAF 92-151-X,Geographic_Verified
NB-0050,Norton,Village,Kings,Fundy & Greater Saint John,New Brunswick,45.65056,-65.73139,CGN:DAYFB,,1410,1382,2,578,547,5.4,75.35,18.7,Moderate MIZ,88,49,54.2,norton,/areas/norton,BUILT,,/areas/hampton (17km) | /areas/sussex (19km) | /areas/sussex-corner (21km) | /areas/cambridge-narrows (26km) | /areas/quispamsis (27km),StatCan 2021 Census 98-10-0002; NRCan CGN; StatCan GAF 92-151-X,Verified
NB-0051,Beresford,Town,Gloucester,Acadian Peninsula & Chaleur,New Brunswick,47.71101,-65.70596,CGN:DAHAY,,4294,4288,0.1,2225,2013,9.5,19.24,223.2,Bathurst,194,272,54.1,beresford,/areas/beresford,BUILT,,/areas/petit-rocher (8km) | /areas/bathurst (11km) | /areas/caraquet (57km) | /areas/tracadie (63km) | /areas/dalhousie (63km),StatCan 2021 Census 98-10-0002; NRCan CGN; StatCan GAF 92-151-X,Verified
NB-0052,Wellington,Parish,Kent,Greater Moncton & Southeast,New Brunswick,46.47704,-64.73888,GAF-DA-avg,,3292,3079,6.9,1747,1455,16.7,184.8,17.8,Moderate MIZ,43,169,54.1,wellington,,DEFERRED,parish = administrative geography; name-clash/cannibalization with its municipality; covered by nearby municipal pages,,StatCan 2021 Census 98-10-0002; NRCan CGN; StatCan GAF 92-151-X,Geographic_Verified
NB-0053,Westfield,Parish,Kings,Fundy & Greater Saint John,New Brunswick,45.36583,-66.26611,CGN:DAUUE,,2114,1962,7.7,970,878,9.5,295.34,7.2,Saint John,141,19,53.9,westfield,,DEFERRED,parish = administrative geography; name-clash/cannibalization with its municipality; covered by nearby municipal pages,,StatCan 2021 Census 98-10-0002; NRCan CGN; StatCan GAF 92-151-X,Geographic_Verified
NB-0054,Minto,Village,Queens,Capital & River Valley,New Brunswick,46.07769,-66.07850,CGN:DAVMY,,2234,2305,-3.1,1145,1043,8.9,31.36,71.2,Moderate MIZ,100,89,53.9,minto,/areas/minto,BUILT,,/areas/chipman (19km) | /areas/cambridge-narrows (31km) | /areas/gagetown (35km) | /areas/oromocto (40km) | /areas/fredericton (48km),StatCan 2021 Census 98-10-0002; NRCan CGN; StatCan GAF 92-151-X,Verified
NB-0055,Beresford,Parish,Gloucester,Acadian Peninsula & Chaleur,New Brunswick,47.71101,-65.70596,CGN:DAHAY,,6226,6248,-0.4,2785,2672,4.1,455.61,13.7,Bathurst,194,272,53.8,beresford-gloucester,,DEFERRED,parish = administrative geography; name-clash/cannibalization with its municipality; covered by nearby municipal pages,,StatCan 2021 Census 98-10-0002; NRCan CGN; StatCan GAF 92-151-X,Geographic_Verified
NB-0056,Sussex Corner,Village,Kings,Fundy & Greater Saint John,New Brunswick,45.71080,-65.47390,CGN:DBEJF,,1458,1461,-0.2,674,653,3.1,9.32,156.4,Moderate MIZ,68,67,53.7,sussex-corner,/areas/sussex-corner,BUILT,,/areas/sussex (3km) | /areas/norton (21km) | /areas/petitcodiac (34km) | /areas/hampton (36km) | /areas/cambridge-narrows (40km),StatCan 2021 Census 98-10-0002; NRCan CGN; StatCan GAF 92-151-X,Verified
NB-0057,Shippagan,Town,Gloucester,Acadian Peninsula & Chaleur,New Brunswick,47.73556,-64.72361,CGN:DAGLX,,2672,2580,3.6,1274,1197,6,9.96,268.3,Moderate MIZ,183,292,53.4,shippagan,/areas/shippagan,BUILT,,/areas/lameque (11km) | /areas/caraquet (17km) | /areas/tracadie (28km) | /areas/neguac (61km) | /areas/bathurst (69km),StatCan 2021 Census 98-10-0002; NRCan CGN; StatCan GAF 92-151-X,Verified
NB-0058,Studholm,Parish,Kings,Fundy & Greater Saint John,New Brunswick,45.78312,-65.56158,GAF-DA-avg,,3527,3522,0.1,1480,1386,6.4,448.98,7.9,Moderate MIZ,69,69,53.4,studholm,,DEFERRED,parish = administrative geography; name-clash/cannibalization with its municipality; covered by nearby municipal pages,,StatCan 2021 Census 98-10-0002; NRCan CGN; StatCan GAF 92-151-X,Geographic_Verified
NB-0059,Saint Mary,Parish,Kent,Greater Moncton & Southeast,New Brunswick,46.39821,-64.84584,GAF-DA-avg,,1991,1972,1,956,868,9.2,238.32,8.4,Strong MIZ,35,157,53.3,saint-mary,,DEFERRED,parish = administrative geography; name-clash/cannibalization with its municipality; covered by nearby municipal pages,,StatCan 2021 Census 98-10-0002; NRCan CGN; StatCan GAF 92-151-X,Geographic_Verified
NB-0060,Saint-Joseph,Parish,Madawaska,Northwest & Madawaska,New Brunswick,45.97621,-64.56526,CGN:DACTL,,1549,1538,0.7,723,674,6.8,321.42,4.8,Edmundston,21,140,53.2,saint-joseph,,DEFERRED,parish = administrative geography; name-clash/cannibalization with its municipality; covered by nearby municipal pages,,StatCan 2021 Census 98-10-0002; NRCan CGN; StatCan GAF 92-151-X,Geographic_Verified
NB-0061,Hillsborough,Parish,Albert,Greater Moncton & Southeast,New Brunswick,45.92225,-64.64536,CGN:DAKHP,,1397,1308,6.8,656,612,6.7,304.03,4.6,Moncton,21,132,53,hillsborough-albert,,DEFERRED,parish = administrative geography; name-clash/cannibalization with its municipality; covered by nearby municipal pages,,StatCan 2021 Census 98-10-0002; NRCan CGN; StatCan GAF 92-151-X,Geographic_Verified
NB-0062,Pennfield,Parish,Charlotte,Fundy & Greater Saint John,New Brunswick,45.10157,-66.73896,CGN:DANEC,,2222,2170,2.4,1029,948,7.9,363.75,6.1,Moderate MIZ,188,56,52.9,pennfield,,DEFERRED,parish = administrative geography; name-clash/cannibalization with its municipality; covered by nearby municipal pages,,StatCan 2021 Census 98-10-0002; NRCan CGN; StatCan GAF 92-151-X,Geographic_Verified
NB-0063,Saint George,Parish,Charlotte,Fundy & Greater Saint John,New Brunswick,45.14738,-66.83952,GAF-DA-avg,,2495,2341,6.6,1224,1046,14.5,500.05,5,Moderate MIZ,191,62,52.9,saint-george,,DEFERRED,parish = administrative geography; name-clash/cannibalization with its municipality; covered by nearby municipal pages,,StatCan 2021 Census 98-10-0002; NRCan CGN; StatCan GAF 92-151-X,Geographic_Verified
NB-0064,Sussex,Parish,Kings,Fundy & Greater Saint John,New Brunswick,45.72353,-65.51039,CGN:DASFF,,2579,2516,2.5,1094,1052,3.8,243.99,10.6,Moderate MIZ,70,66,52.9,sussex-kings,,DEFERRED,parish = administrative geography; name-clash/cannibalization with its municipality; covered by nearby municipal pages,,StatCan 2021 Census 98-10-0002; NRCan CGN; StatCan GAF 92-151-X,Geographic_Verified
NB-0065,Chipman,Village,Queens,Capital & River Valley,New Brunswick,46.17783,-65.87748,CGN:DAFZP,,1201,1104,8.8,647,605,6.5,19,63.2,Moderate MIZ,85,102,52.8,chipman,/areas/chipman,BUILT,,/areas/minto (19km) | /areas/cambridge-narrows (41km) | /areas/gagetown (50km) | /areas/sussex (58km) | /areas/upper-miramichi (59km),StatCan 2021 Census 98-10-0002; NRCan CGN; StatCan GAF 92-151-X,Verified
NB-0066,Richibucto 15,Indian Reserve,Kent,Greater Moncton & Southeast,New Brunswick,46.58595,-64.99903,GAF-DA-avg,,2062,1942,6.2,787,765,2.8,15.38,134.1,Weak MIZ,58,168,52.7,richibucto-15,,DEFERRED,First Nations reserve — not an appropriate third-party service-landing-page target; excluded from build,,StatCan 2021 Census 98-10-0002; NRCan CGN; StatCan GAF 92-151-X,Geographic_Verified
NB-0067,Rogersville,Village,Northumberland,Miramichi River Region,New Brunswick,46.73151,-65.42669,CGN:DACMY,,1193,1166,2.3,576,544,5.6,7.19,165.9,Strong MIZ,87,169,52.7,rogersville,/areas/rogersville,BUILT,,/areas/saint-louis-de-kent (35km) | /areas/miramichi (39km) | /areas/rexton (43km) | /areas/richibucto (43km) | /areas/bouctouche (60km),StatCan 2021 Census 98-10-0002; NRCan CGN; StatCan GAF 92-151-X,Verified
NB-0068,Musquash,Parish,Saint John,Fundy & Greater Saint John,New Brunswick,45.19308,-66.32975,CGN:DABHT,,1253,1194,4.9,594,531,10.6,233.06,5.4,Saint John,156,23,52.7,musquash,,DEFERRED,parish = administrative geography; name-clash/cannibalization with its municipality; covered by nearby municipal pages,,StatCan 2021 Census 98-10-0002; NRCan CGN; StatCan GAF 92-151-X,Geographic_Verified
NB-0069,Florenceville-Bristol,Town,Carleton,Capital & River Valley,New Brunswick,46.45213,-67.60644,CGN:DBESQ,,1573,1604,-1.9,729,681,6.6,15.74,100,Weak MIZ,221,177,52.6,florenceville-bristol,/areas/florenceville-bristol,BUILT,,/areas/hartland (19km) | /areas/woodstock (33km) | /areas/nackawic (59km) | /areas/grand-falls (67km) | /areas/saint-andre (77km),StatCan 2021 Census 98-10-0002; NRCan CGN; StatCan GAF 92-151-X,Verified
NB-0070,Saint David,Parish,Charlotte,Fundy & Greater Saint John,New Brunswick,46.42112,-64.76208,CGN:DAECP,,1470,1529,-3.9,725,639,11.9,190.39,7.7,Weak MIZ,37,163,52.6,saint-david,,DEFERRED,parish = administrative geography; name-clash/cannibalization with its municipality; covered by nearby municipal pages,,StatCan 2021 Census 98-10-0002; NRCan CGN; StatCan GAF 92-151-X,Geographic_Verified
NB-0071,New Maryland,Parish,York,Capital & River Valley,New Brunswick,45.87917,-66.66944,CGN:DABPX,,2806,2606,7.7,1057,1042,1.4,375.02,7.5,Fredericton,148,82,52.6,new-maryland-york,,DEFERRED,parish = administrative geography; name-clash/cannibalization with its municipality; covered by nearby municipal pages,,StatCan 2021 Census 98-10-0002; NRCan CGN; StatCan GAF 92-151-X,Geographic_Verified
NB-0072,Campobello Island,Rural Community,Charlotte,Fundy & Greater Saint John,New Brunswick,44.88598,-66.91097,CGN:DBEST,,949,872,8.8,612,423,30.9,39.59,24,Weak MIZ,213,79,52.5,campobello-island,/areas/campobello-island,BUILT,,/areas/blacks-harbour (22km) | /areas/grand-manan (22km) | /areas/saint-andrews (24km) | /areas/st-george (28km) | /areas/st-stephen (45km),StatCan 2021 Census 98-10-0002; NRCan CGN; StatCan GAF 92-151-X,Verified
NB-0073,Richibucto,Parish,Kent,Greater Moncton & Southeast,New Brunswick,46.68107,-64.86895,CGN:DAXCB,,2085,1872,11.4,1162,947,18.5,249.21,8.4,Moderate MIZ,66,182,52.5,richibucto-kent,,DEFERRED,parish = administrative geography; name-clash/cannibalization with its municipality; covered by nearby municipal pages,,StatCan 2021 Census 98-10-0002; NRCan CGN; StatCan GAF 92-151-X,Geographic_Verified
NB-0074,Springfield,Parish,Kings,Fundy & Greater Saint John,New Brunswick,45.67816,-65.81254,CGN:DAITZ,,1641,1525,7.6,797,653,18.1,248.53,6.6,Moderate MIZ,92,49,52.5,springfield,,DEFERRED,parish = administrative geography; name-clash/cannibalization with its municipality; covered by nearby municipal pages,,StatCan 2021 Census 98-10-0002; NRCan CGN; StatCan GAF 92-151-X,Geographic_Verified
NB-0075,Saint-Charles,Parish,Kent,Greater Moncton & Southeast,New Brunswick,46.66739,-64.97636,CGN:DAECC,,2024,1997,1.4,1025,916,10.6,175.07,11.6,Moderate MIZ,66,176,52.4,saint-charles,,DEFERRED,parish = administrative geography; name-clash/cannibalization with its municipality; covered by nearby municipal pages,,StatCan 2021 Census 98-10-0002; NRCan CGN; StatCan GAF 92-151-X,Geographic_Verified
NB-0076,Greenwich,Parish,Kings,Fundy & Greater Saint John,New Brunswick,45.49646,-66.13488,GAF-DA-avg,,1126,1058,6.4,579,500,13.6,114.56,9.8,Saint John,124,25,52.4,greenwich,,DEFERRED,parish = administrative geography; name-clash/cannibalization with its municipality; covered by nearby municipal pages,,StatCan 2021 Census 98-10-0002; NRCan CGN; StatCan GAF 92-151-X,Geographic_Verified
NB-0077,Upham,Parish,Kings,Fundy & Greater Saint John,New Brunswick,45.48916,-65.66407,CGN:DAMFG,,1357,1269,6.9,586,554,5.5,189.21,7.2,Saint John,96,39,52.4,upham,,DEFERRED,parish = administrative geography; name-clash/cannibalization with its municipality; covered by nearby municipal pages,,StatCan 2021 Census 98-10-0002; NRCan CGN; StatCan GAF 92-151-X,Geographic_Verified
NB-0078,Sackville,Parish,Westmorland,Greater Moncton & Southeast,New Brunswick,45.91861,-64.38583,CGN:DAEAM,,1204,1182,1.9,549,497,9.5,578.9,2.1,Moderate MIZ,36,149,52.3,sackville-westmorland,,DEFERRED,parish = administrative geography; name-clash/cannibalization with its municipality; covered by nearby municipal pages,,StatCan 2021 Census 98-10-0002; NRCan CGN; StatCan GAF 92-151-X,Geographic_Verified
NB-0079,Bright,Parish,York,Capital & River Valley,New Brunswick,46.02029,-66.92624,GAF-DA-avg,,3317,3289,0.9,1477,1348,8.7,403.73,8.2,Fredericton,166,107,52.2,bright,,DEFERRED,parish = administrative geography; name-clash/cannibalization with its municipality; covered by nearby municipal pages,,StatCan 2021 Census 98-10-0002; NRCan CGN; StatCan GAF 92-151-X,Geographic_Verified
NB-0080,Kingsclear,Parish,York,Capital & River Valley,New Brunswick,45.88980,-66.90283,CGN:DALQS,,2839,2822,0.6,1104,1086,1.6,150.11,18.9,Fredericton,166,95,52.2,kingsclear,,DEFERRED,parish = administrative geography; name-clash/cannibalization with its municipality; covered by nearby municipal pages,,StatCan 2021 Census 98-10-0002; NRCan CGN; StatCan GAF 92-151-X,Geographic_Verified
NB-0081,McAdam,Village,York,Capital & River Valley,New Brunswick,45.59222,-67.30806,CGN:DBAQZ,,1173,1151,1.9,600,534,11,14.19,82.7,Moderate MIZ,204,103,52.2,mcadam,/areas/mcadam,BUILT,,/areas/nackawic (45km) | /areas/st-stephen (46km) | /areas/hanwell (49km) | /areas/tracy (50km) | /areas/fredericton-junction (55km),StatCan 2021 Census 98-10-0002; NRCan CGN; StatCan GAF 92-151-X,Verified
NB-0082,Cardwell,Parish,Kings,Fundy & Greater Saint John,New Brunswick,45.79423,-65.30606,GAF-DA-avg,,1401,1353,3.5,721,620,14,311.87,4.5,Moderate MIZ,52,83,52.1,cardwell,,DEFERRED,parish = administrative geography; name-clash/cannibalization with its municipality; covered by nearby municipal pages,,StatCan 2021 Census 98-10-0002; NRCan CGN; StatCan GAF 92-151-X,Geographic_Verified
NB-0083,Norton,Parish,Kings,Fundy & Greater Saint John,New Brunswick,45.65056,-65.73139,CGN:DAYFB,,1325,1301,1.8,550,529,3.8,144.77,9.2,Saint John,88,49,52.1,norton-kings,,DEFERRED,parish = administrative geography; name-clash/cannibalization with its municipality; covered by nearby municipal pages,,StatCan 2021 Census 98-10-0002; NRCan CGN; StatCan GAF 92-151-X,Geographic_Verified
NB-0084,Neguac,Village,Northumberland,Miramichi River Region,New Brunswick,47.24388,-65.08409,CGN:DABMS,,1692,1684,0.5,781,721,7.7,26.72,63.3,Moderate MIZ,131,232,52.1,neguac,/areas/neguac,BUILT,,/areas/miramichi (24km) | /areas/tracadie (33km) | /areas/saint-louis-de-kent (57km) | /areas/bathurst (59km) | /areas/caraquet (59km),StatCan 2021 Census 98-10-0002; NRCan CGN; StatCan GAF 92-151-X,Verified
NB-0085,Saint Martins,Parish,Saint John,Fundy & Greater Saint John,New Brunswick,45.37689,-65.59293,GAF-DA-avg,,1177,1132,4,597,533,10.7,629,1.9,Saint John,101,39,52.1,saint-martins,,DEFERRED,parish = administrative geography; name-clash/cannibalization with its municipality; covered by nearby municipal pages,,StatCan 2021 Census 98-10-0002; NRCan CGN; StatCan GAF 92-151-X,Geographic_Verified
NB-0086,Weldford,Parish,Kent,Greater Moncton & Southeast,New Brunswick,46.50804,-65.07622,GAF-DA-avg,,1335,1333,0.2,720,620,13.9,607.56,2.2,Moderate MIZ,52,157,52,weldford,,DEFERRED,parish = administrative geography; name-clash/cannibalization with its municipality; covered by nearby municipal pages,,StatCan 2021 Census 98-10-0002; NRCan CGN; StatCan GAF 92-151-X,Geographic_Verified
NB-0087,Elgin,Parish,Albert,Greater Moncton & Southeast,New Brunswick,45.79714,-65.10925,CGN:DAYZX,,1064,892,19.3,610,485,20.5,519.54,2,Moncton,41,94,51.9,elgin,,DEFERRED,parish = administrative geography; name-clash/cannibalization with its municipality; covered by nearby municipal pages,,StatCan 2021 Census 98-10-0002; NRCan CGN; StatCan GAF 92-151-X,Geographic_Verified
NB-0088,Saint-Louis,Parish,Kent,Greater Moncton & Southeast,New Brunswick,46.71428,-65.05159,GAF-DA-avg,,1760,1802,-2.3,797,748,6.1,258.65,6.8,Moderate MIZ,73,178,51.9,saint-louis,,DEFERRED,parish = administrative geography; name-clash/cannibalization with its municipality; covered by nearby municipal pages,,StatCan 2021 Census 98-10-0002; NRCan CGN; StatCan GAF 92-151-X,Geographic_Verified
NB-0089,Maugerville,Parish,Sunbury,Capital & River Valley,New Brunswick,45.87165,-66.44528,CGN:DAYHL,,1772,1831,-3.2,726,711,2.1,919.94,1.9,Fredericton,131,73,51.9,maugerville,,DEFERRED,parish = administrative geography; name-clash/cannibalization with its municipality; covered by nearby municipal pages,,StatCan 2021 Census 98-10-0002; NRCan CGN; StatCan GAF 92-151-X,Geographic_Verified
NB-0090,Dorchester,Village,Westmorland,Greater Moncton & Southeast,New Brunswick,45.89925,-64.51661,CGN:DADLI,,906,1096,-17.3,221,207,6.3,5.71,158.7,Moncton,29,139,51.9,dorchester,/areas/dorchester,BUILT,,/areas/hillsborough (10km) | /areas/memramcook (10km) | /areas/sackville (10km) | /areas/dieppe (24km) | /areas/riverview (29km),StatCan 2021 Census 98-10-0002; NRCan CGN; StatCan GAF 92-151-X,Verified
NB-0091,Havelock,Parish,Kings,Fundy & Greater Saint John,New Brunswick,45.99447,-65.31579,CGN:DAZBU,,1042,1061,-1.8,522,442,15.3,349.22,3,Strong MIZ,43,99,51.8,havelock,,DEFERRED,parish = administrative geography; name-clash/cannibalization with its municipality; covered by nearby municipal pages,,StatCan 2021 Census 98-10-0002; NRCan CGN; StatCan GAF 92-151-X,Geographic_Verified
NB-0092,Dalhousie,Town,Restigouche,Restigouche & Chaleur Bay,New Brunswick,48.04861,-66.39028,CGN:DAAOF,,3223,3126,3.1,1678,1523,9.2,15.12,213.1,Moderate MIZ,250,310,51.8,dalhousie,/areas/dalhousie,BUILT,,/areas/campbellton (22km) | /areas/petit-rocher (58km) | /areas/beresford (63km) | /areas/bathurst (74km) | /areas/kedgwick (84km),StatCan 2021 Census 98-10-0002; NRCan CGN; StatCan GAF 92-151-X,Verified
NB-0093,Lamèque,Town,Gloucester,Acadian Peninsula & Chaleur,New Brunswick,47.81306,-64.62361,CGN:DAUFI,,1301,1285,1.2,606,577,4.8,12.4,104.9,Weak MIZ,192,303,51.7,lameque,/areas/lameque,BUILT,,/areas/shippagan (11km) | /areas/caraquet (25km) | /areas/tracadie (39km) | /areas/neguac (72km) | /areas/bathurst (78km),StatCan 2021 Census 98-10-0002; NRCan CGN; StatCan GAF 92-151-X,Verified
NB-0094,Manners Sutton,Parish,York,Capital & River Valley,New Brunswick,45.68885,-67.03985,CGN:DAMLS,,1920,1777,8,1067,861,19.3,524.75,3.7,Fredericton,181,89,51.6,manners-sutton,,DEFERRED,parish = administrative geography; name-clash/cannibalization with its municipality; covered by nearby municipal pages,,StatCan 2021 Census 98-10-0002; NRCan CGN; StatCan GAF 92-151-X,Geographic_Verified
NB-0095,Alnwick,Parish,Northumberland,Miramichi River Region,New Brunswick,47.33086,-65.01862,CGN:DBFDU,,3615,3640,-0.7,1852,1620,12.5,668.84,5.4,Moderate MIZ,139,242,51.4,alnwick,,DEFERRED,parish = administrative geography; name-clash/cannibalization with its municipality; covered by nearby municipal pages,,StatCan 2021 Census 98-10-0002; NRCan CGN; StatCan GAF 92-151-X,Geographic_Verified
NB-0096,Nackawic,Town,York,Capital & River Valley,New Brunswick,45.99330,-67.22000,CGN:DABIY,,962,941,2.2,451,428,5.1,7.68,125.2,Moderate MIZ,189,120,51.3,nackawic,/areas/nackawic,BUILT,,/areas/woodstock (34km) | /areas/hanwell (36km) | /areas/hartland (40km) | /areas/fredericton (43km) | /areas/new-maryland (44km),StatCan 2021 Census 98-10-0002; NRCan CGN; StatCan GAF 92-151-X,Verified
NB-0097,Hardwicke,Parish,Northumberland,Miramichi River Region,New Brunswick,47.07631,-65.01679,CGN:DAJHH,,2203,2201,0.1,1181,1010,14.5,275.95,8,Moderate MIZ,111,216,51.2,hardwicke,,DEFERRED,parish = administrative geography; name-clash/cannibalization with its municipality; covered by nearby municipal pages,,StatCan 2021 Census 98-10-0002; NRCan CGN; StatCan GAF 92-151-X,Geographic_Verified
NB-0098,Botsford,Parish,Westmorland,Greater Moncton & Southeast,New Brunswick,46.11379,-63.91675,GAF-DA-avg,,1120,1058,5.9,978,546,44.2,304.62,3.7,Moderate MIZ,66,191,51.2,botsford,,DEFERRED,parish = administrative geography; name-clash/cannibalization with its municipality; covered by nearby municipal pages,,StatCan 2021 Census 98-10-0002; NRCan CGN; StatCan GAF 92-151-X,Geographic_Verified
NB-0099,Saint Stephen,Parish,Charlotte,Fundy & Greater Saint John,New Brunswick,45.20977,-67.30626,GAF-DA-avg,,1671,1839,-9.1,772,704,8.8,102.83,16.3,Weak MIZ,219,98,51.1,saint-stephen,,DEFERRED,parish = administrative geography; name-clash/cannibalization with its municipality; covered by nearby municipal pages,,StatCan 2021 Census 98-10-0002; NRCan CGN; StatCan GAF 92-151-X,Geographic_Verified
NB-0100,Blackville,Parish,Northumberland,Miramichi River Region,New Brunswick,46.73036,-65.83046,CGN:DARAZ,,1996,2028,-1.6,970,826,14.8,823.93,2.4,Strong MIZ,108,163,51.1,blackville,,DEFERRED,parish = administrative geography; name-clash/cannibalization with its municipality; covered by nearby municipal pages,,StatCan 2021 Census 98-10-0002; NRCan CGN; StatCan GAF 92-151-X,Geographic_Verified
NB-0101,Blacks Harbour,Village,Charlotte,Fundy & Greater Saint John,New Brunswick,45.05888,-66.78485,CGN:DARAW,,907,894,1.5,421,385,8.6,9.02,100.6,Moderate MIZ,194,61,50.9,blacks-harbour,/areas/blacks-harbour,BUILT,,/areas/st-george (9km) | /areas/campobello-island (22km) | /areas/saint-andrews (22km) | /areas/grand-manan (40km) | /areas/st-stephen (42km),StatCan 2021 Census 98-10-0002; NRCan CGN; StatCan GAF 92-151-X,Verified
NB-0102,Saint-Quentin,Town,Restigouche,Restigouche & Chaleur Bay,New Brunswick,47.51355,-67.39229,CGN:DAEGG,,2141,2194,-2.4,1015,976,3.8,4.24,504.7,Weak MIZ,254,269,50.9,saint-quentin,/areas/saint-quentin,BUILT,,/areas/kedgwick (15km) | /areas/saint-andre (50km) | /areas/grand-falls (57km) | /areas/edmundston (70km) | /areas/campbellton (76km),StatCan 2021 Census 98-10-0002; NRCan CGN; StatCan GAF 92-151-X,Verified
NB-0103,Rexton,Village,Kent,Greater Moncton & Southeast,New Brunswick,46.64290,-64.87140,CGN:DAXAY,,874,830,5.3,446,396,11.2,6.29,138.9,Moderate MIZ,62,178,50.8,rexton,/areas/rexton,BUILT,,/areas/richibucto (4km) | /areas/saint-louis-de-kent (13km) | /areas/bouctouche (22km) | /areas/saint-antoine (32km) | /areas/cocagne (39km),StatCan 2021 Census 98-10-0002; NRCan CGN; StatCan GAF 92-151-X,Verified
NB-0104,Haut-Madawaska,Rural Community,Madawaska,Northwest & Madawaska,New Brunswick,47.30157,-68.52136,CGN:DBFEK,,3720,3714,0.2,1781,1658,6.9,611.55,6.1,Moderate MIZ,316,294,50.8,haut-madawaska,/areas/haut-madawaska,BUILT,,/areas/edmundston (19km) | /areas/saint-andre (61km) | /areas/grand-falls (66km) | /areas/saint-quentin (88km) | /areas/kedgwick (96km),StatCan 2021 Census 98-10-0002; NRCan CGN; StatCan GAF 92-151-X,Verified
NB-0105,Saint-André,Rural Community,Madawaska,Northwest & Madawaska,New Brunswick,47.13460,-67.74531,CGN:DBESU,,1794,1901,-5.6,782,756,3.3,136.19,13.2,Moderate MIZ,255,244,50.8,saint-andre,/areas/saint-andre,BUILT,,/areas/grand-falls (9km) | /areas/edmundston (49km) | /areas/saint-quentin (50km) | /areas/haut-madawaska (61km) | /areas/kedgwick (64km),StatCan 2021 Census 98-10-0002; NRCan CGN; StatCan GAF 92-151-X,Verified
NB-0106,Gagetown,Village,Queens,Capital & River Valley,New Brunswick,45.77000,-66.16278,CGN:DAGPI,,787,711,10.7,341,315,7.6,49.32,16,Strong MIZ,113,56,50.8,gagetown,/areas/gagetown,BUILT,,/areas/cambridge-narrows (16km) | /areas/oromocto (25km) | /areas/minto (35km) | /areas/hampton (36km) | /areas/norton (36km),StatCan 2021 Census 98-10-0002; NRCan CGN; StatCan GAF 92-151-X,Verified
NB-0107,Simonds,Parish,Saint John,Fundy & Greater Saint John,New Brunswick,46.33336,-67.55324,CGN:DAHNF,,3913,3843,1.8,1671,1588,5,281.06,13.9,Saint John,215,165,50.8,simonds,,DEFERRED,parish = administrative geography; name-clash/cannibalization with its municipality; covered by nearby municipal pages,,StatCan 2021 Census 98-10-0002; NRCan CGN; StatCan GAF 92-151-X,Geographic_Verified
NB-0108,Saint-Louis de Kent,Village,Kent,Greater Moncton & Southeast,New Brunswick,46.73658,-64.97158,CGN:DBDXC,,981,856,14.6,452,424,6.2,1.98,494.6,Moderate MIZ,74,183,50.7,saint-louis-de-kent,/areas/saint-louis-de-kent,BUILT,,/areas/richibucto (10km) | /areas/rexton (13km) | /areas/bouctouche (35km) | /areas/rogersville (35km) | /areas/miramichi (37km),StatCan 2021 Census 98-10-0002; NRCan CGN; StatCan GAF 92-151-X,Verified
NB-0109,Glenelg,Parish,Northumberland,Miramichi River Region,New Brunswick,46.96665,-65.28277,GAF-DA-avg,,1532,1560,-1.8,729,655,10.2,504.78,3,Miramichi,105,198,50.7,glenelg,,DEFERRED,parish = administrative geography; name-clash/cannibalization with its municipality; covered by nearby municipal pages,,StatCan 2021 Census 98-10-0002; NRCan CGN; StatCan GAF 92-151-X,Geographic_Verified
NB-0110,Canning,Parish,Queens,Capital & River Valley,New Brunswick,45.97758,-66.07271,GAF-DA-avg,,1028,924,11.3,850,511,39.9,173.25,5.9,Strong MIZ,101,78,50.7,canning,,DEFERRED,parish = administrative geography; name-clash/cannibalization with its municipality; covered by nearby municipal pages,,StatCan 2021 Census 98-10-0002; NRCan CGN; StatCan GAF 92-151-X,Geographic_Verified
NB-0111,Bathurst,Parish,Gloucester,Acadian Peninsula & Chaleur,New Brunswick,47.62611,-65.62833,CGN:DAFQX,,4761,4797,-0.8,2293,2103,8.3,1502.74,3.2,Bathurst,183,264,50.6,bathurst-gloucester,,DEFERRED,parish = administrative geography; name-clash/cannibalization with its municipality; covered by nearby municipal pages,,StatCan 2021 Census 98-10-0002; NRCan CGN; StatCan GAF 92-151-X,Geographic_Verified
NB-0112,Shippagan,Parish,Gloucester,Acadian Peninsula & Chaleur,New Brunswick,47.73556,-64.72361,CGN:DAGLX,,4781,4800,-0.4,2663,2248,15.6,204.52,23.4,Weak MIZ,183,292,50.6,shippagan-gloucester,,DEFERRED,parish = administrative geography; name-clash/cannibalization with its municipality; covered by nearby municipal pages,,StatCan 2021 Census 98-10-0002; NRCan CGN; StatCan GAF 92-151-X,Geographic_Verified
NB-0113,Northesk,Parish,Northumberland,Miramichi River Region,New Brunswick,47.01850,-65.79404,GAF-DA-avg,,2169,2263,-4.2,1069,970,9.3,3346.76,0.6,Miramichi,129,195,50.6,northesk,,DEFERRED,parish = administrative geography; name-clash/cannibalization with its municipality; covered by nearby municipal pages,,StatCan 2021 Census 98-10-0002; NRCan CGN; StatCan GAF 92-151-X,Geographic_Verified
NB-0114,Rogersville,Parish,Northumberland,Miramichi River Region,New Brunswick,46.73151,-65.42669,CGN:DACMY,,1072,1102,-2.7,538,490,8.9,326.27,3.3,Moderate MIZ,87,169,50.5,rogersville-northumberland,,DEFERRED,parish = administrative geography; name-clash/cannibalization with its municipality; covered by nearby municipal pages,,StatCan 2021 Census 98-10-0002; NRCan CGN; StatCan GAF 92-151-X,Geographic_Verified
NB-0115,Cambridge-Narrows,Village,Queens,Capital & River Valley,New Brunswick,45.81194,-65.96528,CGN:DAZQA,,715,562,27.2,629,345,45.2,106.79,6.7,Moderate MIZ,97,60,50.5,cambridge-narrows,/areas/cambridge-narrows,BUILT,,/areas/gagetown (16km) | /areas/norton (26km) | /areas/minto (31km) | /areas/hampton (33km) | /areas/sussex (37km),StatCan 2021 Census 98-10-0002; NRCan CGN; StatCan GAF 92-151-X,Verified
NB-0116,Kedgwick,Rural Community,Restigouche,Restigouche & Chaleur Bay,New Brunswick,47.64585,-67.34334,CGN:DALLG,,1986,1964,1.1,951,913,4,649.36,3.1,Weak MIZ,261,281,50.5,kedgwick,/areas/kedgwick,BUILT,,/areas/saint-quentin (15km) | /areas/campbellton (63km) | /areas/saint-andre (64km) | /areas/grand-falls (72km) | /areas/edmundston (77km),StatCan 2021 Census 98-10-0002; NRCan CGN; StatCan GAF 92-151-X,Verified
NB-0117,Fredericton Junction,Village,Sunbury,Capital & River Valley,New Brunswick,45.66299,-66.61359,CGN:DAFMK,,719,704,2.1,304,292,3.9,23.85,30.1,Strong MIZ,150,61,50.5,fredericton-junction,/areas/fredericton-junction,BUILT,,/areas/tracy (6km) | /areas/oromocto (23km) | /areas/new-maryland (24km) | /areas/hanwell (26km) | /areas/fredericton (32km),StatCan 2021 Census 98-10-0002; NRCan CGN; StatCan GAF 92-151-X,Verified
NB-0118,Devon 30,Indian Reserve,York,Capital & River Valley,New Brunswick,45.98410,-66.62222,GAF-DA-avg,,1070,1038,3.1,365,355,2.7,2.72,393.4,Fredericton,143,90,50.4,devon-30,,DEFERRED,First Nations reserve — not an appropriate third-party service-landing-page target; excluded from build,,StatCan 2021 Census 98-10-0002; NRCan CGN; StatCan GAF 92-151-X,Geographic_Verified
NB-0119,Wakefield,Parish,Carleton,Capital & River Valley,New Brunswick,46.22194,-67.52415,CGN:DANJS,,2722,2767,-1.6,1191,1136,4.6,196.31,13.9,Weak MIZ,212,155,50.3,wakefield,,DEFERRED,parish = administrative geography; name-clash/cannibalization with its municipality; covered by nearby municipal pages,,StatCan 2021 Census 98-10-0002; NRCan CGN; StatCan GAF 92-151-X,Geographic_Verified
NB-0120,Petit-Rocher,Village,Gloucester,Acadian Peninsula & Chaleur,New Brunswick,47.78333,-65.71667,CGN:DANSC,,1954,1897,3,963,890,7.6,4.52,432.2,Bathurst,202,280,50.3,petit-rocher,/areas/petit-rocher,BUILT,,/areas/beresford (8km) | /areas/bathurst (19km) | /areas/caraquet (57km) | /areas/dalhousie (58km) | /areas/tracadie (67km),StatCan 2021 Census 98-10-0002; NRCan CGN; StatCan GAF 92-151-X,Verified
NB-0121,Southesk,Parish,Northumberland,Miramichi River Region,New Brunswick,46.95080,-65.77834,GAF-DA-avg,,1666,1694,-1.7,813,720,11.4,2462.6,0.7,Miramichi,123,188,50.3,southesk,,DEFERRED,parish = administrative geography; name-clash/cannibalization with its municipality; covered by nearby municipal pages,,StatCan 2021 Census 98-10-0002; NRCan CGN; StatCan GAF 92-151-X,Geographic_Verified
NB-0122,Southampton,Parish,York,Capital & River Valley,New Brunswick,45.96604,-67.25064,CGN:DAIJG,,1497,1484,0.9,699,641,8.3,446.85,3.4,Moderate MIZ,191,120,50.2,southampton,,DEFERRED,parish = administrative geography; name-clash/cannibalization with its municipality; covered by nearby municipal pages,,StatCan 2021 Census 98-10-0002; NRCan CGN; StatCan GAF 92-151-X,Geographic_Verified
NB-0123,Saint James,Parish,Charlotte,Fundy & Greater Saint John,New Brunswick,45.34683,-67.31741,GAF-DA-avg,,1024,1186,-13.7,499,451,9.6,552.9,1.9,Weak MIZ,214,98,50.1,saint-james,,DEFERRED,parish = administrative geography; name-clash/cannibalization with its municipality; covered by nearby municipal pages,,StatCan 2021 Census 98-10-0002; NRCan CGN; StatCan GAF 92-151-X,Geographic_Verified
NB-0124,Queensbury,Parish,York,Capital & River Valley,New Brunswick,45.98394,-67.04720,GAF-DA-avg,,1237,1174,5.4,579,536,7.4,294.35,4.2,Fredericton,176,110,50.1,queensbury,,DEFERRED,parish = administrative geography; name-clash/cannibalization with its municipality; covered by nearby municipal pages,,StatCan 2021 Census 98-10-0002; NRCan CGN; StatCan GAF 92-151-X,Geographic_Verified
NB-0125,Hartland,Town,Carleton,Capital & River Valley,New Brunswick,46.29861,-67.50000,CGN:DAJRT,,933,957,-2.5,390,374,4.1,9.5,98.2,Weak MIZ,211,159,50,hartland,/areas/hartland,BUILT,,/areas/woodstock (18km) | /areas/florenceville-bristol (19km) | /areas/nackawic (40km) | /areas/hanwell (73km) | /areas/fredericton (75km),StatCan 2021 Census 98-10-0002; NRCan CGN; StatCan GAF 92-151-X,Verified
NB-0126,Tracy,Village,Sunbury,Capital & River Valley,New Brunswick,45.67673,-66.68278,CGN:DATGV,,610,608,0.3,258,251,2.7,29.44,20.7,Fredericton,154,66,50,tracy,/areas/tracy,BUILT,,/areas/fredericton-junction (6km) | /areas/hanwell (22km) | /areas/new-maryland (23km) | /areas/oromocto (25km) | /areas/fredericton (30km),StatCan 2021 Census 98-10-0002; NRCan CGN; StatCan GAF 92-151-X,Verified
NB-0127,Prince William,Parish,York,Capital & River Valley,New Brunswick,45.91363,-67.05089,CGN:DAVPQ,,1083,930,16.5,648,479,26.1,284.39,3.8,Fredericton,177,105,50,prince-william,,DEFERRED,parish = administrative geography; name-clash/cannibalization with its municipality; covered by nearby municipal pages,,StatCan 2021 Census 98-10-0002; NRCan CGN; StatCan GAF 92-151-X,Geographic_Verified
NB-0128,Northampton,Parish,Carleton,Capital & River Valley,New Brunswick,46.07292,-67.55062,CGN:DABTQ,,1875,1724,8.8,766,725,5.4,243.31,7.7,Weak MIZ,214,146,49.9,northampton,,DEFERRED,parish = administrative geography; name-clash/cannibalization with its municipality; covered by nearby municipal pages,,StatCan 2021 Census 98-10-0002; NRCan CGN; StatCan GAF 92-151-X,Geographic_Verified
NB-0129,Woodstock,Parish,Carleton,Capital & River Valley,New Brunswick,46.15222,-67.59833,CGN:DAWNW,,2219,2178,1.9,936,886,5.3,194.83,11.4,Weak MIZ,217,154,49.9,woodstock-carleton,,DEFERRED,parish = administrative geography; name-clash/cannibalization with its municipality; covered by nearby municipal pages,,StatCan 2021 Census 98-10-0002; NRCan CGN; StatCan GAF 92-151-X,Geographic_Verified
NB-0130,Saint-Léonard,Town,Madawaska,Northwest & Madawaska,New Brunswick,47.16250,-67.92500,CGN:DBDVO,,1322,1300,1.7,625,567,9.3,5.34,247.8,Moderate MIZ,268,254,49.9,saint-leonard,,DEFERRED,unified score 49.9 < 50 publish threshold (pop 1322),,StatCan 2021 Census 98-10-0002; NRCan CGN; StatCan GAF 92-151-X,Geographic_Verified
NB-0131,Bas-Caraquet,Village,Gloucester,Acadian Peninsula & Chaleur,New Brunswick,47.80076,-64.83220,CGN:DAYSY,,1311,1305,0.5,687,616,10.3,30.93,42.4,Moderate MIZ,191,296,49.8,bas-caraquet,,DEFERRED,unified score 49.8 < 50 publish threshold (pop 1311),,StatCan 2021 Census 98-10-0002; NRCan CGN; StatCan GAF 92-151-X,Geographic_Verified
NB-0132,Riverside-Albert,Village,Albert,Greater Moncton & Southeast,New Brunswick,45.74315,-64.74029,CGN:DAXFQ,,348,350,-0.6,154,142,7.8,3.39,102.8,Strong MIZ,38,116,49.7,riverside-albert,,DEFERRED,unified score 49.7 < 50 publish threshold (pop 348),,StatCan 2021 Census 98-10-0002; NRCan CGN; StatCan GAF 92-151-X,Geographic_Verified
NB-0133,Bertrand,Village,Gloucester,Acadian Peninsula & Chaleur,New Brunswick,47.74704,-65.07659,CGN:DAHCB,,1153,1166,-1.1,665,581,12.6,57.01,20.2,Moderate MIZ,186,285,49.7,bertrand,,DEFERRED,unified score 49.7 < 50 publish threshold (pop 1153),,StatCan 2021 Census 98-10-0002; NRCan CGN; StatCan GAF 92-151-X,Geographic_Verified
NB-0134,Saint-Paul,Parish,Kent,Greater Moncton & Southeast,New Brunswick,46.33333,-65.00000,CGN:DAXUQ,,877,842,4.2,383,369,3.7,228.41,3.8,Moncton,32,144,49.7,saint-paul,,DEFERRED,parish = administrative geography; name-clash/cannibalization with its municipality; covered by nearby municipal pages,,StatCan 2021 Census 98-10-0002; NRCan CGN; StatCan GAF 92-151-X,Geographic_Verified
NB-0135,Newcastle,Parish,Northumberland,Miramichi River Region,New Brunswick,47.00393,-65.56716,CGN:DABOP,,1149,1136,1.1,529,481,9.1,578.7,2,Miramichi,118,196,49.7,newcastle,,DEFERRED,parish = administrative geography; name-clash/cannibalization with its municipality; covered by nearby municipal pages,,StatCan 2021 Census 98-10-0002; NRCan CGN; StatCan GAF 92-151-X,Geographic_Verified
NB-0136,Perth-Andover,Village,Victoria,Northwest & Madawaska,New Brunswick,46.72280,-67.71170,CGN:DANFW,,1574,1590,-1,785,744,5.2,8.96,175.6,Weak MIZ,236,205,49.7,perth-andover,,DEFERRED,unified score 49.7 < 50 publish threshold (pop 1574),,StatCan 2021 Census 98-10-0002; NRCan CGN; StatCan GAF 92-151-X,Geographic_Verified
NB-0137,Atholville,Village,Restigouche,Restigouche & Chaleur Bay,New Brunswick,47.98895,-66.72057,CGN:DADXK,,3290,3570,-7.8,1550,1490,3.9,119.58,27.5,Campbellton (New Brunswick part,258,306,49.6,atholville,,DEFERRED,unified score 49.6 < 50 publish threshold (pop 3290),,StatCan 2021 Census 98-10-0002; NRCan CGN; StatCan GAF 92-151-X,Geographic_Verified
NB-0138,Lepreau,Parish,Charlotte,Fundy & Greater Saint John,New Brunswick,45.17033,-66.46749,CGN:DAPIT,,803,707,13.6,492,385,21.7,209.52,3.8,Saint John,166,34,49.5,lepreau,,DEFERRED,parish = administrative geography; name-clash/cannibalization with its municipality; covered by nearby municipal pages,,StatCan 2021 Census 98-10-0002; NRCan CGN; StatCan GAF 92-151-X,Geographic_Verified
NB-0139,Blackville,Village,Northumberland,Miramichi River Region,New Brunswick,46.73036,-65.83046,CGN:DARAZ,,914,958,-4.6,446,394,11.7,20.97,43.6,Strong MIZ,108,163,49.5,blackville-northumberland,,DEFERRED,unified score 49.5 < 50 publish threshold (pop 914),,StatCan 2021 Census 98-10-0002; NRCan CGN; StatCan GAF 92-151-X,Geographic_Verified
NB-0140,Esgenoôpetitj 14,Indian Reserve,Northumberland,Miramichi River Region,New Brunswick,47.21946,-65.12912,GAF-DA-avg,,1223,1179,3.7,472,456,3.4,9.55,128,Weak MIZ,129,228,49.5,esgenoopetitj-14,,DEFERRED,First Nations reserve — not an appropriate third-party service-landing-page target; excluded from build,,StatCan 2021 Census 98-10-0002; NRCan CGN; StatCan GAF 92-151-X,Geographic_Verified
NB-0141,Westmorland,Parish,Westmorland,Greater Moncton & Southeast,New Brunswick,45.95856,-64.17567,GAF-DA-avg,,997,908,9.8,570,419,26.5,173.27,5.8,Moderate MIZ,49,165,49.5,westmorland,,DEFERRED,parish = administrative geography; name-clash/cannibalization with its municipality; covered by nearby municipal pages,,StatCan 2021 Census 98-10-0002; NRCan CGN; StatCan GAF 92-151-X,Geographic_Verified
NB-0142,Allardville,Parish,Gloucester,Acadian Peninsula & Chaleur,New Brunswick,47.47477,-65.49243,CGN:DADEH,,1949,2032,-4.1,919,878,4.5,654.6,3,Strong MIZ,164,249,49.4,allardville,,DEFERRED,parish = administrative geography; name-clash/cannibalization with its municipality; covered by nearby municipal pages,,StatCan 2021 Census 98-10-0002; NRCan CGN; StatCan GAF 92-151-X,Geographic_Verified
NB-0143,Inkerman,Parish,Gloucester,Acadian Peninsula & Chaleur,New Brunswick,47.66728,-64.82536,CGN:DAMVM,,2373,2366,0.3,1162,1035,10.9,107.63,22,Weak MIZ,176,283,49.4,inkerman,,DEFERRED,parish = administrative geography; name-clash/cannibalization with its municipality; covered by nearby municipal pages,,StatCan 2021 Census 98-10-0002; NRCan CGN; StatCan GAF 92-151-X,Geographic_Verified
NB-0144,St. Martins,Village,Saint John,Fundy & Greater Saint John,New Brunswick,45.34827,-65.55554,CGN:DAEFL,,320,276,15.9,194,157,19.1,2.35,136.1,Saint John,102,41,49.4,st-martins,,DEFERRED,unified score 49.4 < 50 publish threshold (pop 320),,StatCan 2021 Census 98-10-0002; NRCan CGN; StatCan GAF 92-151-X,Geographic_Verified
NB-0145,Port Elgin,Village,Westmorland,Greater Moncton & Southeast,New Brunswick,46.04517,-64.08980,CGN:DACFW,,381,408,-6.6,170,161,5.3,2.65,144,Moderate MIZ,53,176,49.4,port-elgin,,DEFERRED,unified score 49.4 < 50 publish threshold (pop 381),,StatCan 2021 Census 98-10-0002; NRCan CGN; StatCan GAF 92-151-X,Geographic_Verified
NB-0146,Paquetville,Parish,Gloucester,Acadian Peninsula & Chaleur,New Brunswick,47.66809,-65.10827,CGN:DAMQZ,,2250,2329,-3.4,1145,1044,8.8,220.42,10.2,Moderate MIZ,178,276,49.3,paquetville,,DEFERRED,parish = administrative geography; name-clash/cannibalization with its municipality; covered by nearby municipal pages,,StatCan 2021 Census 98-10-0002; NRCan CGN; StatCan GAF 92-151-X,Geographic_Verified
NB-0147,Brighton,Parish,Carleton,Capital & River Valley,New Brunswick,46.32891,-67.43285,GAF-DA-avg,,1596,1735,-8,773,675,12.7,509.3,3.1,Weak MIZ,206,158,49.2,brighton,,DEFERRED,parish = administrative geography; name-clash/cannibalization with its municipality; covered by nearby municipal pages,,StatCan 2021 Census 98-10-0002; NRCan CGN; StatCan GAF 92-151-X,Geographic_Verified
NB-0148,Doaktown,Village,Northumberland,Miramichi River Region,New Brunswick,46.56389,-66.11528,CGN:DAKFH,,808,792,2,430,391,9.1,29.09,27.8,Moderate MIZ,116,144,49.1,doaktown,,DEFERRED,unified score 49.1 < 50 publish threshold (pop 808),,StatCan 2021 Census 98-10-0002; NRCan CGN; StatCan GAF 92-151-X,Geographic_Verified
NB-0149,Petersville,Parish,Queens,Capital & River Valley,New Brunswick,45.49749,-66.43817,GAF-DA-avg,,710,681,4.3,323,305,5.6,589.95,1.2,Saint John,144,38,49.1,petersville,,DEFERRED,parish = administrative geography; name-clash/cannibalization with its municipality; covered by nearby municipal pages,,StatCan 2021 Census 98-10-0002; NRCan CGN; StatCan GAF 92-151-X,Geographic_Verified
NB-0150,Belledune,Village,Restigouche,Restigouche & Chaleur Bay,New Brunswick,47.88595,-65.81148,CGN:DBDYY,,1325,1417,-6.5,782,688,12,189.18,7,Moderate MIZ,215,291,49.1,belledune,,DEFERRED,unified score 49.1 < 50 publish threshold (pop 1325),,StatCan 2021 Census 98-10-0002; NRCan CGN; StatCan GAF 92-151-X,Geographic_Verified
NB-0151,Richmond,Parish,Carleton,Capital & River Valley,New Brunswick,46.10626,-67.70944,GAF-DA-avg,,1456,1303,11.7,598,557,6.9,258.8,5.6,Weak MIZ,226,158,49,richmond,,DEFERRED,parish = administrative geography; name-clash/cannibalization with its municipality; covered by nearby municipal pages,,StatCan 2021 Census 98-10-0002; NRCan CGN; StatCan GAF 92-151-X,Geographic_Verified
NB-0152,Alma,Village,Albert,Greater Moncton & Southeast,New Brunswick,45.65167,-64.92500,CGN:DADES,,282,213,32.4,196,130,33.7,47.64,5.9,No MIZ,50,98,48.9,alma,,DEFERRED,unified score 48.9 < 50 publish threshold (pop 282),,StatCan 2021 Census 98-10-0002; NRCan CGN; StatCan GAF 92-151-X,Geographic_Verified
NB-0153,Hopewell,Parish,Albert,Greater Moncton & Southeast,New Brunswick,45.81173,-64.61561,GAF-DA-avg,,597,647,-7.7,310,280,9.7,149.14,4,Moncton,33,128,48.9,hopewell,,DEFERRED,parish = administrative geography; name-clash/cannibalization with its municipality; covered by nearby municipal pages,,StatCan 2021 Census 98-10-0002; NRCan CGN; StatCan GAF 92-151-X,Geographic_Verified
NB-0154,Kent,Parish,Carleton,Capital & River Valley,New Brunswick,46.55036,-67.59424,GAF-DA-avg,,1966,2153,-8.7,906,853,5.8,839.76,2.3,Weak MIZ,222,185,48.8,kent,,DEFERRED,parish = administrative geography; name-clash/cannibalization with its municipality; covered by nearby municipal pages,,StatCan 2021 Census 98-10-0002; NRCan CGN; StatCan GAF 92-151-X,Geographic_Verified
NB-0155,Eel River Crossing,Village,Restigouche,Restigouche & Chaleur Bay,New Brunswick,48.01580,-66.42188,CGN:DAMAX,,1844,1953,-5.6,887,839,5.4,65.26,28.3,Strong MIZ,248,306,48.8,eel-river-crossing,,DEFERRED,unified score 48.8 < 50 publish threshold (pop 1844),,StatCan 2021 Census 98-10-0002; NRCan CGN; StatCan GAF 92-151-X,Geographic_Verified
NB-0156,Blissville,Parish,Sunbury,Capital & River Valley,New Brunswick,45.60536,-66.56218,CGN:DARCR,,777,819,-5.1,369,337,8.7,341.74,2.3,Moderate MIZ,148,54,48.8,blissville,,DEFERRED,parish = administrative geography; name-clash/cannibalization with its municipality; covered by nearby municipal pages,,StatCan 2021 Census 98-10-0002; NRCan CGN; StatCan GAF 92-151-X,Geographic_Verified
NB-0157,Plaster Rock,Village,Victoria,Northwest & Madawaska,New Brunswick,46.90882,-67.39527,CGN:DANWY,,1002,1023,-2.1,515,476,7.6,3.01,332.9,Weak MIZ,220,209,48.7,plaster-rock,,DEFERRED,unified score 48.7 < 50 publish threshold (pop 1002),,StatCan 2021 Census 98-10-0002; NRCan CGN; StatCan GAF 92-151-X,Geographic_Verified
NB-0158,Saint-Isidore,Parish,Gloucester,Acadian Peninsula & Chaleur,New Brunswick,47.55508,-65.04664,CGN:DAEEA,,1312,1361,-3.6,643,608,5.4,173.14,7.6,Weak MIZ,164,265,48.6,saint-isidore,,DEFERRED,parish = administrative geography; name-clash/cannibalization with its municipality; covered by nearby municipal pages,,StatCan 2021 Census 98-10-0002; NRCan CGN; StatCan GAF 92-151-X,Geographic_Verified
NB-0159,Waterborough,Parish,Queens,Capital & River Valley,New Brunswick,45.91667,-66.00000,CGN:DAOLM,,903,847,6.6,661,419,36.6,443.16,2,Moderate MIZ,96,72,48.6,waterborough,,DEFERRED,parish = administrative geography; name-clash/cannibalization with its municipality; covered by nearby municipal pages,,StatCan 2021 Census 98-10-0002; NRCan CGN; StatCan GAF 92-151-X,Geographic_Verified
NB-0160,Balmoral,Village,Restigouche,Restigouche & Chaleur Bay,New Brunswick,47.96250,-66.47000,CGN:DBAAC,,1603,1674,-4.2,713,687,3.6,43.33,37,Moderate MIZ,245,301,48.6,balmoral,,DEFERRED,unified score 48.6 < 50 publish threshold (pop 1603),,StatCan 2021 Census 98-10-0002; NRCan CGN; StatCan GAF 92-151-X,Geographic_Verified
NB-0161,Sheffield,Parish,Sunbury,Capital & River Valley,New Brunswick,45.89003,-66.33210,CGN:DAGKI,,888,809,9.8,499,392,21.4,271.29,3.3,Strong MIZ,122,72,48.6,sheffield,,DEFERRED,parish = administrative geography; name-clash/cannibalization with its municipality; covered by nearby municipal pages,,StatCan 2021 Census 98-10-0002; NRCan CGN; StatCan GAF 92-151-X,Geographic_Verified
NB-0162,Wicklow,Parish,Carleton,Capital & River Valley,New Brunswick,46.49546,-67.59107,CGN:DAVAP,,1591,1697,-6.2,678,645,4.9,195.5,8.1,Weak MIZ,221,180,48.5,wicklow,,DEFERRED,parish = administrative geography; name-clash/cannibalization with its municipality; covered by nearby municipal pages,,StatCan 2021 Census 98-10-0002; NRCan CGN; StatCan GAF 92-151-X,Geographic_Verified
NB-0163,Rothesay,Parish,Kings,Fundy & Greater Saint John,New Brunswick,45.38028,-65.96861,CGN:DACOY,,342,325,5.2,134,128,4.5,7.26,47.1,Saint John,121,14,48.4,rothesay-kings,,DEFERRED,parish = administrative geography; name-clash/cannibalization with its municipality; covered by nearby municipal pages,,StatCan 2021 Census 98-10-0002; NRCan CGN; StatCan GAF 92-151-X,Geographic_Verified
NB-0164,Dorchester,Parish,Westmorland,Greater Moncton & Southeast,New Brunswick,45.89925,-64.51661,CGN:DADLI,,438,429,2.1,207,196,5.3,90.13,4.9,Moncton,29,139,48.4,dorchester-westmorland,,DEFERRED,parish = administrative geography; name-clash/cannibalization with its municipality; covered by nearby municipal pages,,StatCan 2021 Census 98-10-0002; NRCan CGN; StatCan GAF 92-151-X,Geographic_Verified
NB-0165,Harvey,Village,York,Capital & River Valley,New Brunswick,45.73005,-67.00646,CGN:DAJSJ,,402,358,12.3,176,171,2.8,2.46,163.5,Fredericton,177,89,48.4,harvey,,DEFERRED,unified score 48.4 < 50 publish threshold (pop 402),,StatCan 2021 Census 98-10-0002; NRCan CGN; StatCan GAF 92-151-X,Geographic_Verified
NB-0166,Peel,Parish,Carleton,Capital & River Valley,New Brunswick,46.35206,-67.55339,CGN:DANDA,,1198,1196,0.2,508,485,4.5,112.74,10.6,Weak MIZ,216,167,48.3,peel,,DEFERRED,parish = administrative geography; name-clash/cannibalization with its municipality; covered by nearby municipal pages,,StatCan 2021 Census 98-10-0002; NRCan CGN; StatCan GAF 92-151-X,Geographic_Verified
NB-0167,Cambridge,Parish,Queens,Capital & River Valley,New Brunswick,45.84026,-66.06107,GAF-DA-avg,,684,647,5.7,478,287,40,113.17,6,Moderate MIZ,103,63,48.3,cambridge,,DEFERRED,parish = administrative geography; name-clash/cannibalization with its municipality; covered by nearby municipal pages,,StatCan 2021 Census 98-10-0002; NRCan CGN; StatCan GAF 92-151-X,Geographic_Verified
NB-0168,Charlo,Village,Restigouche,Restigouche & Chaleur Bay,New Brunswick,47.99345,-66.30491,CGN:DAWHN,,1323,1310,1,724,632,12.7,31.45,42.1,Moderate MIZ,241,303,48.3,charlo,,DEFERRED,unified score 48.3 < 50 publish threshold (pop 1323),,StatCan 2021 Census 98-10-0002; NRCan CGN; StatCan GAF 92-151-X,Geographic_Verified
NB-0169,Saint Patrick,Parish,Charlotte,Fundy & Greater Saint John,New Brunswick,45.20493,-66.99473,GAF-DA-avg,,710,689,3,408,326,20.1,236.59,3,Weak MIZ,198,73,48.1,saint-patrick,,DEFERRED,parish = administrative geography; name-clash/cannibalization with its municipality; covered by nearby municipal pages,,StatCan 2021 Census 98-10-0002; NRCan CGN; StatCan GAF 92-151-X,Geographic_Verified
NB-0170,Chipman,Parish,Queens,Capital & River Valley,New Brunswick,46.17783,-65.87748,CGN:DAFZP,,853,913,-6.6,504,421,16.5,483.45,1.8,Moderate MIZ,85,102,48.1,chipman-queens,,DEFERRED,parish = administrative geography; name-clash/cannibalization with its municipality; covered by nearby municipal pages,,StatCan 2021 Census 98-10-0002; NRCan CGN; StatCan GAF 92-151-X,Geographic_Verified
NB-0171,West Isles,Parish,Charlotte,Fundy & Greater Saint John,New Brunswick,44.98717,-66.96098,GAF-DA-avg,,718,797,-9.9,475,344,27.6,38.32,18.7,Moderate MIZ,209,77,48,west-isles,,DEFERRED,parish = administrative geography; name-clash/cannibalization with its municipality; covered by nearby municipal pages,,StatCan 2021 Census 98-10-0002; NRCan CGN; StatCan GAF 92-151-X,Geographic_Verified
NB-0172,Acadieville,Parish,Kent,Greater Moncton & Southeast,New Brunswick,46.72929,-65.26594,CGN:DADAN,,752,709,6.1,381,335,12.1,332.08,2.3,Strong MIZ,81,173,48,acadieville,,DEFERRED,parish = administrative geography; name-clash/cannibalization with its municipality; covered by nearby municipal pages,,StatCan 2021 Census 98-10-0002; NRCan CGN; StatCan GAF 92-151-X,Geographic_Verified
NB-0173,Kars,Parish,Kings,Fundy & Greater Saint John,New Brunswick,45.60000,-65.98333,CGN:DALKS,,377,325,16,291,167,42.6,75.54,5,Strong MIZ,108,37,47.9,kars,,DEFERRED,parish = administrative geography; name-clash/cannibalization with its municipality; covered by nearby municipal pages,,StatCan 2021 Census 98-10-0002; NRCan CGN; StatCan GAF 92-151-X,Geographic_Verified
NB-0174,Johnston,Parish,Queens,Capital & River Valley,New Brunswick,45.89731,-65.80949,GAF-DA-avg,,638,560,13.9,384,294,23.4,360.87,1.8,Moderate MIZ,82,72,47.9,johnston,,DEFERRED,parish = administrative geography; name-clash/cannibalization with its municipality; covered by nearby municipal pages,,StatCan 2021 Census 98-10-0002; NRCan CGN; StatCan GAF 92-151-X,Geographic_Verified
NB-0175,Wickham,Parish,Queens,Capital & River Valley,New Brunswick,45.64488,-66.07260,CGN:DAVAN,,409,427,-4.2,383,203,47,160.54,2.5,Strong MIZ,112,41,47.9,wickham,,DEFERRED,parish = administrative geography; name-clash/cannibalization with its municipality; covered by nearby municipal pages,,StatCan 2021 Census 98-10-0002; NRCan CGN; StatCan GAF 92-151-X,Geographic_Verified
NB-0176,Caraquet,Parish,Gloucester,Acadian Peninsula & Chaleur,New Brunswick,47.76556,-64.95000,CGN:DAZVA,,1261,1337,-5.7,659,602,8.6,109.32,11.5,Weak MIZ,187,290,47.8,caraquet-gloucester,,DEFERRED,parish = administrative geography; name-clash/cannibalization with its municipality; covered by nearby municipal pages,,StatCan 2021 Census 98-10-0002; NRCan CGN; StatCan GAF 92-151-X,Geographic_Verified
NB-0177,Harvey,Parish,Albert,Greater Moncton & Southeast,New Brunswick,45.72458,-64.71028,CGN:DAJSI,,358,333,7.5,239,183,23.4,276.85,1.3,Strong MIZ,41,117,47.7,harvey-albert,,DEFERRED,parish = administrative geography; name-clash/cannibalization with its municipality; covered by nearby municipal pages,,StatCan 2021 Census 98-10-0002; NRCan CGN; StatCan GAF 92-151-X,Geographic_Verified
NB-0178,Carleton,Parish,Kent,Greater Moncton & Southeast,New Brunswick,46.89934,-64.92462,GAF-DA-avg,,764,708,7.9,413,359,13.1,435.23,1.8,Moderate MIZ,91,201,47.7,carleton,,DEFERRED,parish = administrative geography; name-clash/cannibalization with its municipality; covered by nearby municipal pages,,StatCan 2021 Census 98-10-0002; NRCan CGN; StatCan GAF 92-151-X,Geographic_Verified
NB-0179,Gordon,Parish,Victoria,Northwest & Madawaska,New Brunswick,46.86032,-67.41724,GAF-DA-avg,,1559,1493,4.4,776,694,10.6,1430.19,1.1,Weak MIZ,220,205,47.7,gordon,,DEFERRED,parish = administrative geography; name-clash/cannibalization with its municipality; covered by nearby municipal pages,,StatCan 2021 Census 98-10-0002; NRCan CGN; StatCan GAF 92-151-X,Geographic_Verified
NB-0180,Saint Croix,Parish,Charlotte,Fundy & Greater Saint John,New Brunswick,45.19033,-67.12158,GAF-DA-avg,,648,657,-1.4,346,280,19.1,78.6,8.2,Weak MIZ,208,83,47.6,saint-croix,,DEFERRED,parish = administrative geography; name-clash/cannibalization with its municipality; covered by nearby municipal pages,,StatCan 2021 Census 98-10-0002; NRCan CGN; StatCan GAF 92-151-X,Geographic_Verified
NB-0181,New Bandon,Parish,Gloucester,Acadian Peninsula & Chaleur,New Brunswick,47.75675,-65.31653,CGN:DABOI,,1200,1214,-1.2,714,583,18.3,359.28,3.3,Moderate MIZ,190,282,47.6,new-bandon,,DEFERRED,parish = administrative geography; name-clash/cannibalization with its municipality; covered by nearby municipal pages,,StatCan 2021 Census 98-10-0002; NRCan CGN; StatCan GAF 92-151-X,Geographic_Verified
NB-0182,Saint-Isidore,Village,Gloucester,Acadian Peninsula & Chaleur,New Brunswick,47.55508,-65.04664,CGN:DAEEA,,810,764,6,387,364,5.9,22.94,35.3,Moderate MIZ,164,265,47.6,saint-isidore-gloucester,,DEFERRED,unified score 47.6 < 50 publish threshold (pop 810),,StatCan 2021 Census 98-10-0002; NRCan CGN; StatCan GAF 92-151-X,Geographic_Verified
NB-0183,Waterford,Parish,Kings,Fundy & Greater Saint John,New Brunswick,45.68114,-65.37000,CGN:DAOLN,,491,469,4.7,255,208,18.4,221.27,2.2,Moderate MIZ,64,71,47.6,waterford,,DEFERRED,parish = administrative geography; name-clash/cannibalization with its municipality; covered by nearby municipal pages,,StatCan 2021 Census 98-10-0002; NRCan CGN; StatCan GAF 92-151-X,Geographic_Verified
NB-0184,Derby,Parish,Northumberland,Miramichi River Region,New Brunswick,46.88774,-65.65532,CGN:DAJQC,,938,976,-3.9,450,415,7.8,61,15.4,Miramichi,111,182,47.5,derby,,DEFERRED,parish = administrative geography; name-clash/cannibalization with its municipality; covered by nearby municipal pages,,StatCan 2021 Census 98-10-0002; NRCan CGN; StatCan GAF 92-151-X,Geographic_Verified
NB-0185,Nelson,Parish,Northumberland,Miramichi River Region,New Brunswick,46.88231,-65.61365,GAF-DA-avg,,929,952,-2.4,433,395,8.8,353.68,2.6,Miramichi,109,182,47.5,nelson,,DEFERRED,parish = administrative geography; name-clash/cannibalization with its municipality; covered by nearby municipal pages,,StatCan 2021 Census 98-10-0002; NRCan CGN; StatCan GAF 92-151-X,Geographic_Verified
NB-0186,Gladstone,Parish,Sunbury,Capital & River Valley,New Brunswick,45.66846,-66.71595,GAF-DA-avg,,486,452,7.5,227,204,10.1,362.08,1.3,Fredericton,157,67,47.5,gladstone,,DEFERRED,parish = administrative geography; name-clash/cannibalization with its municipality; covered by nearby municipal pages,,StatCan 2021 Census 98-10-0002; NRCan CGN; StatCan GAF 92-151-X,Geographic_Verified
NB-0187,Drummond,Parish,Victoria,Northwest & Madawaska,New Brunswick,47.03540,-67.68233,CGN:DAYXM,,2095,2157,-2.9,899,867,3.6,1013.66,2.1,Weak MIZ,246,232,47.5,drummond,,DEFERRED,parish = administrative geography; name-clash/cannibalization with its municipality; covered by nearby municipal pages,,StatCan 2021 Census 98-10-0002; NRCan CGN; StatCan GAF 92-151-X,Geographic_Verified
NB-0188,Dufferin,Parish,Charlotte,Fundy & Greater Saint John,New Brunswick,46.14298,-65.83635,CGN:DALDS,,565,573,-1.4,265,243,8.3,12.34,45.8,Moderate MIZ,82,98,47.4,dufferin,,DEFERRED,parish = administrative geography; name-clash/cannibalization with its municipality; covered by nearby municipal pages,,StatCan 2021 Census 98-10-0002; NRCan CGN; StatCan GAF 92-151-X,Geographic_Verified
NB-0189,Stanley,Village,York,Capital & River Valley,New Brunswick,46.28444,-66.72333,CGN:DAIWW,,397,412,-3.6,182,164,9.9,16.93,23.5,Strong MIZ,151,124,47.4,stanley,,DEFERRED,unified score 47.4 < 50 publish threshold (pop 397),,StatCan 2021 Census 98-10-0002; NRCan CGN; StatCan GAF 92-151-X,Geographic_Verified
NB-0190,Saint Andrews,Parish,Charlotte,Fundy & Greater Saint John,New Brunswick,45.07991,-67.05837,CGN:DAEBC,,550,553,-0.5,296,249,15.9,24.27,22.7,Weak MIZ,210,81,47.3,saint-andrews-charlotte,,DEFERRED,parish = administrative geography; name-clash/cannibalization with its municipality; covered by nearby municipal pages,,StatCan 2021 Census 98-10-0002; NRCan CGN; StatCan GAF 92-151-X,Geographic_Verified
NB-0191,Hampstead,Parish,Queens,Capital & River Valley,New Brunswick,45.62118,-66.08222,CGN:DAJFT,,288,277,4,167,130,22.2,212.39,1.4,Moderate MIZ,114,39,47.3,hampstead,,DEFERRED,parish = administrative geography; name-clash/cannibalization with its municipality; covered by nearby municipal pages,,StatCan 2021 Census 98-10-0002; NRCan CGN; StatCan GAF 92-151-X,Geographic_Verified
NB-0192,Harcourt,Parish,Kent,Greater Moncton & Southeast,New Brunswick,46.46992,-65.24574,CGN:DAJGZ,,346,346,,237,170,28.3,1169.2,0.3,Strong MIZ,56,147,47.1,harcourt,,DEFERRED,parish = administrative geography; name-clash/cannibalization with its municipality; covered by nearby municipal pages,,StatCan 2021 Census 98-10-0002; NRCan CGN; StatCan GAF 92-151-X,Geographic_Verified
NB-0193,Denmark,Parish,Victoria,Northwest & Madawaska,New Brunswick,46.94127,-67.60044,GAF-DA-avg,,1424,1471,-3.2,677,621,8.3,751.08,1.9,Weak MIZ,236,220,47.1,denmark,,DEFERRED,parish = administrative geography; name-clash/cannibalization with its municipality; covered by nearby municipal pages,,StatCan 2021 Census 98-10-0002; NRCan CGN; StatCan GAF 92-151-X,Geographic_Verified
NB-0194,Stanley,Parish,York,Capital & River Valley,New Brunswick,46.28444,-66.72333,CGN:DAIWW,,920,832,10.6,433,388,10.4,1218.38,0.8,Strong MIZ,151,124,47.1,stanley-york,,DEFERRED,parish = administrative geography; name-clash/cannibalization with its municipality; covered by nearby municipal pages,,StatCan 2021 Census 98-10-0002; NRCan CGN; StatCan GAF 92-151-X,Geographic_Verified
NB-0195,Le Goulet,Village,Gloucester,Acadian Peninsula & Chaleur,New Brunswick,47.70889,-64.69778,CGN:DAPIB,,749,793,-5.5,339,321,5.3,5.4,138.6,Moderate MIZ,180,290,47,le-goulet,,DEFERRED,unified score 47 < 50 publish threshold (pop 749),,StatCan 2021 Census 98-10-0002; NRCan CGN; StatCan GAF 92-151-X,Geographic_Verified
NB-0196,Nigadoo,Village,Gloucester,Acadian Peninsula & Chaleur,New Brunswick,47.73778,-65.73611,CGN:DABRN,,997,963,3.5,450,436,3.1,7.65,130.4,Bathurst,197,275,47,nigadoo,,DEFERRED,unified score 47 < 50 publish threshold (pop 997),,StatCan 2021 Census 98-10-0002; NRCan CGN; StatCan GAF 92-151-X,Geographic_Verified
NB-0197,Paquetville,Village,Gloucester,Acadian Peninsula & Chaleur,New Brunswick,47.66809,-65.10827,CGN:DAMQZ,,718,720,-0.3,359,324,9.7,9.26,77.5,Moderate MIZ,178,276,47,paquetville-gloucester,,DEFERRED,unified score 47 < 50 publish threshold (pop 718),,StatCan 2021 Census 98-10-0002; NRCan CGN; StatCan GAF 92-151-X,Geographic_Verified
NB-0198,Gagetown,Parish,Queens,Capital & River Valley,New Brunswick,45.77000,-66.16278,CGN:DAGPI,,324,311,4.2,149,144,3.4,234.58,1.4,Moderate MIZ,113,56,47,gagetown-queens,,DEFERRED,parish = administrative geography; name-clash/cannibalization with its municipality; covered by nearby municipal pages,,StatCan 2021 Census 98-10-0002; NRCan CGN; StatCan GAF 92-151-X,Geographic_Verified
NB-0199,Northfield,Parish,Sunbury,Capital & River Valley,New Brunswick,46.20105,-65.99418,GAF-DA-avg,,577,620,-6.9,286,262,8.4,303.27,1.9,Moderate MIZ,95,103,47,northfield,,DEFERRED,parish = administrative geography; name-clash/cannibalization with its municipality; covered by nearby municipal pages,,StatCan 2021 Census 98-10-0002; NRCan CGN; StatCan GAF 92-151-X,Geographic_Verified
NB-0200,Perth,Parish,Victoria,Northwest & Madawaska,New Brunswick,46.72172,-67.63012,GAF-DA-avg,,1047,1082,-3.2,560,473,15.5,318.1,3.3,Weak MIZ,230,201,47,perth,,DEFERRED,parish = administrative geography; name-clash/cannibalization with its municipality; covered by nearby municipal pages,,StatCan 2021 Census 98-10-0002; NRCan CGN; StatCan GAF 92-151-X,Geographic_Verified
NB-0201,Sainte-Marie-Saint-Raphaël,Village,Gloucester,Acadian Peninsula & Chaleur,New Brunswick,47.77694,-64.57889,CGN:DBEBG,,820,879,-6.7,433,395,8.8,15.84,51.8,Moderate MIZ,188,301,46.9,sainte-marie-saint-raphael,,DEFERRED,unified score 46.9 < 50 publish threshold (pop 820),,StatCan 2021 Census 98-10-0002; NRCan CGN; StatCan GAF 92-151-X,Geographic_Verified
NB-0202,Tobique 20,Indian Reserve,Victoria,Northwest & Madawaska,New Brunswick,46.78187,-67.69819,GAF-DA-avg,,1080,968,11.6,478,409,14.4,24.98,43.2,Weak MIZ,237,210,46.8,tobique-20,,DEFERRED,First Nations reserve — not an appropriate third-party service-landing-page target; excluded from build,,StatCan 2021 Census 98-10-0002; NRCan CGN; StatCan GAF 92-151-X,Geographic_Verified
NB-0203,Canterbury,Village,York,Capital & River Valley,New Brunswick,45.89062,-67.46449,CGN:DAZTR,,320,336,-4.8,142,135,4.9,5.32,60.2,Weak MIZ,209,129,46.8,canterbury,,DEFERRED,unified score 46.8 < 50 publish threshold (pop 320),,StatCan 2021 Census 98-10-0002; NRCan CGN; StatCan GAF 92-151-X,Geographic_Verified
NB-0204,Hammond,Parish,Kings,Fundy & Greater Saint John,New Brunswick,45.56520,-65.50338,GAF-DA-avg,,276,251,10,159,130,18.2,244.24,1.1,Moderate MIZ,81,54,46.7,hammond,,DEFERRED,parish = administrative geography; name-clash/cannibalization with its municipality; covered by nearby municipal pages,,StatCan 2021 Census 98-10-0002; NRCan CGN; StatCan GAF 92-151-X,Geographic_Verified
NB-0205,Kingsclear 6,Indian Reserve,York,Capital & River Valley,New Brunswick,45.94997,-66.85176,GAF-DA-avg,,518,493,5.1,209,195,6.7,3.79,136.6,Fredericton,161,97,46.7,kingsclear-6,,DEFERRED,First Nations reserve — not an appropriate third-party service-landing-page target; excluded from build,,StatCan 2021 Census 98-10-0002; NRCan CGN; StatCan GAF 92-151-X,Geographic_Verified
NB-0206,Grande-Anse,Village,Gloucester,Acadian Peninsula & Chaleur,New Brunswick,47.81336,-65.18216,CGN:DAICG,,731,899,-18.7,412,361,12.4,24.27,30.1,Moderate MIZ,194,290,46.5,grande-anse,,DEFERRED,unified score 46.5 < 50 publish threshold (pop 731),,StatCan 2021 Census 98-10-0002; NRCan CGN; StatCan GAF 92-151-X,Geographic_Verified
NB-0207,Millville,Village,York,Capital & River Valley,New Brunswick,46.12734,-67.19218,CGN:DAVLT,,274,273,0.4,145,135,6.9,12.14,22.6,Moderate MIZ,186,129,46.5,millville,,DEFERRED,unified score 46.5 < 50 publish threshold (pop 274),,StatCan 2021 Census 98-10-0002; NRCan CGN; StatCan GAF 92-151-X,Geographic_Verified
NB-0208,Pointe-Verte,Village,Gloucester,Acadian Peninsula & Chaleur,New Brunswick,47.85491,-65.76398,CGN:DACFK,,865,886,-2.4,433,400,7.6,13.76,62.9,Bathurst,210,288,46.4,pointe-verte,,DEFERRED,unified score 46.4 < 50 publish threshold (pop 865),,StatCan 2021 Census 98-10-0002; NRCan CGN; StatCan GAF 92-151-X,Geographic_Verified
NB-0209,Oromocto 26,Indian Reserve,Sunbury,Capital & River Valley,New Brunswick,45.84804,-66.46538,GAF-DA-avg,,295,282,4.6,111,108,2.7,1.18,249.6,Moderate MIZ,133,71,46.4,oromocto-26,,DEFERRED,First Nations reserve — not an appropriate third-party service-landing-page target; excluded from build,,StatCan 2021 Census 98-10-0002; NRCan CGN; StatCan GAF 92-151-X,Geographic_Verified
NB-0210,Dumbarton,Parish,Charlotte,Fundy & Greater Saint John,New Brunswick,45.37642,-67.12995,CGN:DALET,,346,335,3.3,182,158,13.2,373.2,0.9,Weak MIZ,199,84,46.3,dumbarton,,DEFERRED,parish = administrative geography; name-clash/cannibalization with its municipality; covered by nearby municipal pages,,StatCan 2021 Census 98-10-0002; NRCan CGN; StatCan GAF 92-151-X,Geographic_Verified
NB-0211,Saint-Léolin,Village,Gloucester,Acadian Peninsula & Chaleur,New Brunswick,47.77191,-65.16594,CGN:DAEEY,,615,647,-4.9,330,305,7.6,19.73,31.2,Moderate MIZ,190,286,46.3,saint-leolin,,DEFERRED,unified score 46.3 < 50 publish threshold (pop 615),,StatCan 2021 Census 98-10-0002; NRCan CGN; StatCan GAF 92-151-X,Geographic_Verified
NB-0212,Centreville,Village,Carleton,Capital & River Valley,New Brunswick,46.43080,-67.71163,CGN:DAEUU,,508,557,-8.8,263,254,3.4,2.67,190.4,Weak MIZ,229,181,46.2,centreville,,DEFERRED,unified score 46.2 < 50 publish threshold (pop 508),,StatCan 2021 Census 98-10-0002; NRCan CGN; StatCan GAF 92-151-X,Geographic_Verified
NB-0213,Eel Ground 2,Indian Reserve,Northumberland,Miramichi River Region,New Brunswick,46.96738,-65.62721,GAF-DA-avg,,545,532,2.4,235,231,1.7,10.9,50,Miramichi,117,191,46.2,eel-ground-2,,DEFERRED,First Nations reserve — not an appropriate third-party service-landing-page target; excluded from build,,StatCan 2021 Census 98-10-0002; NRCan CGN; StatCan GAF 92-151-X,Geographic_Verified
NB-0214,Brunswick,Parish,Queens,Capital & River Valley,New Brunswick,46.04481,-65.54030,GAF-DA-avg,,224,203,10.3,193,111,42.5,703.2,0.3,Strong MIZ,59,95,46.2,brunswick,,DEFERRED,parish = administrative geography; name-clash/cannibalization with its municipality; covered by nearby municipal pages,,StatCan 2021 Census 98-10-0002; NRCan CGN; StatCan GAF 92-151-X,Geographic_Verified
NB-0215,Saint-Quentin,Parish,Restigouche,Restigouche & Chaleur Bay,New Brunswick,47.51355,-67.39229,CGN:DAEGG,,1504,1532,-1.8,688,633,8,2474.01,0.6,Weak MIZ,254,269,46.2,saint-quentin-restigouche,,DEFERRED,parish = administrative geography; name-clash/cannibalization with its municipality; covered by nearby municipal pages,,StatCan 2021 Census 98-10-0002; NRCan CGN; StatCan GAF 92-151-X,Geographic_Verified
NB-0216,Blissfield,Parish,Northumberland,Miramichi River Region,New Brunswick,46.58502,-66.06065,CGN:DARCM,,491,451,8.9,256,224,12.5,1235.57,0.4,Moderate MIZ,113,146,46.1,blissfield,,DEFERRED,parish = administrative geography; name-clash/cannibalization with its municipality; covered by nearby municipal pages,,StatCan 2021 Census 98-10-0002; NRCan CGN; StatCan GAF 92-151-X,Geographic_Verified
NB-0217,Chatham,Parish,Northumberland,Miramichi River Region,New Brunswick,47.03079,-65.46509,CGN:DAFXK,,527,511,3.1,269,233,13.4,22.7,23.2,Miramichi,117,201,46.1,chatham,,DEFERRED,parish = administrative geography; name-clash/cannibalization with its municipality; covered by nearby municipal pages,,StatCan 2021 Census 98-10-0002; NRCan CGN; StatCan GAF 92-151-X,Geographic_Verified
NB-0218,Grand Falls,Parish,Victoria,Northwest & Madawaska,New Brunswick,47.05250,-67.73500,CGN:DAICU,,1077,1109,-2.9,488,451,7.6,158.09,6.8,Weak MIZ,250,236,46,grand-falls-victoria,,DEFERRED,parish = administrative geography; name-clash/cannibalization with its municipality; covered by nearby municipal pages,,StatCan 2021 Census 98-10-0002; NRCan CGN; StatCan GAF 92-151-X,Geographic_Verified
NB-0219,Bath,Village,Carleton,Capital & River Valley,New Brunswick,46.51184,-67.59504,CGN:DAFQW,,440,476,-7.6,223,192,13.9,2,220,No MIZ,221,182,45.9,bath,,DEFERRED,unified score 45.9 < 50 publish threshold (pop 440),,StatCan 2021 Census 98-10-0002; NRCan CGN; StatCan GAF 92-151-X,Geographic_Verified
NB-0220,Wilmot,Parish,Carleton,Capital & River Valley,New Brunswick,46.30945,-67.61426,CGN:DAVDD,,969,1022,-5.2,412,397,3.6,191.4,5.1,Weak MIZ,220,167,45.9,wilmot,,DEFERRED,parish = administrative geography; name-clash/cannibalization with its municipality; covered by nearby municipal pages,,StatCan 2021 Census 98-10-0002; NRCan CGN; StatCan GAF 92-151-X,Geographic_Verified
NB-0221,Maisonnette,Village,Gloucester,Acadian Peninsula & Chaleur,New Brunswick,47.82028,-65.02333,CGN:DAMJX,,535,495,8.1,401,294,26.7,12.91,41.4,Moderate MIZ,194,294,45.9,maisonnette,,DEFERRED,unified score 45.9 < 50 publish threshold (pop 535),,StatCan 2021 Census 98-10-0002; NRCan CGN; StatCan GAF 92-151-X,Geographic_Verified
NB-0222,Canterbury,Parish,York,Capital & River Valley,New Brunswick,45.89062,-67.46449,CGN:DAZTR,,552,525,5.1,419,248,40.8,550.7,1,Moderate MIZ,209,129,45.9,canterbury-york,,DEFERRED,parish = administrative geography; name-clash/cannibalization with its municipality; covered by nearby municipal pages,,StatCan 2021 Census 98-10-0002; NRCan CGN; StatCan GAF 92-151-X,Geographic_Verified
NB-0223,Dumfries,Parish,York,Capital & River Valley,New Brunswick,45.96094,-67.14189,CGN:DALEU,,420,356,18,304,208,31.6,298.51,1.4,Strong MIZ,183,114,45.8,dumfries,,DEFERRED,parish = administrative geography; name-clash/cannibalization with its municipality; covered by nearby municipal pages,,StatCan 2021 Census 98-10-0002; NRCan CGN; StatCan GAF 92-151-X,Geographic_Verified
NB-0224,Dalhousie,Parish,Restigouche,Restigouche & Chaleur Bay,New Brunswick,48.04861,-66.39028,CGN:DAAOF,,1090,1067,2.2,551,497,9.8,62.62,17.4,Strong MIZ,250,310,45.6,dalhousie-restigouche,,DEFERRED,parish = administrative geography; name-clash/cannibalization with its municipality; covered by nearby municipal pages,,StatCan 2021 Census 98-10-0002; NRCan CGN; StatCan GAF 92-151-X,Geographic_Verified
NB-0225,Aberdeen,Parish,Carleton,Capital & River Valley,New Brunswick,46.51292,-67.33417,GAF-DA-avg,,812,781,4,468,384,17.9,444.88,1.8,Weak MIZ,202,169,45.5,aberdeen,,DEFERRED,parish = administrative geography; name-clash/cannibalization with its municipality; covered by nearby municipal pages,,StatCan 2021 Census 98-10-0002; NRCan CGN; StatCan GAF 92-151-X,Geographic_Verified
NB-0226,Drummond,Village,Victoria,Northwest & Madawaska,New Brunswick,47.03540,-67.68233,CGN:DAYXM,,729,737,-1.1,350,335,4.3,8.88,82.1,Weak MIZ,246,232,45.4,drummond-victoria,,DEFERRED,unified score 45.4 < 50 publish threshold (pop 729),,StatCan 2021 Census 98-10-0002; NRCan CGN; StatCan GAF 92-151-X,Geographic_Verified
NB-0227,Sainte-Anne,Parish,Madawaska,Northwest & Madawaska,New Brunswick,47.62713,-65.72062,CGN:DAECR,,936,964,-2.9,453,435,4,368.76,2.5,Strong MIZ,186,263,45.3,sainte-anne,,DEFERRED,parish = administrative geography; name-clash/cannibalization with its municipality; covered by nearby municipal pages,,StatCan 2021 Census 98-10-0002; NRCan CGN; StatCan GAF 92-151-X,Geographic_Verified
NB-0228,Red Bank 4,Indian Reserve,Northumberland,Miramichi River Region,New Brunswick,46.94161,-65.85061,GAF-DA-avg,,400,309,29.4,196,188,4.1,16.09,24.9,Miramichi,125,186,45.3,red-bank-4,,DEFERRED,First Nations reserve — not an appropriate third-party service-landing-page target; excluded from build,,StatCan 2021 Census 98-10-0002; NRCan CGN; StatCan GAF 92-151-X,Geographic_Verified
NB-0229,Tide Head,Village,Restigouche,Restigouche & Chaleur Bay,New Brunswick,47.98360,-66.76726,CGN:DATBU,,951,938,1.4,433,419,3.2,19.34,49.2,Campbellton (New Brunswick part,259,306,45.1,tide-head,,DEFERRED,unified score 45.1 < 50 publish threshold (pop 951),,StatCan 2021 Census 98-10-0002; NRCan CGN; StatCan GAF 92-151-X,Geographic_Verified
NB-0230,Saint-Jacques,Parish,Madawaska,Northwest & Madawaska,New Brunswick,47.43264,-68.38735,CGN:DACTJ,,1652,1596,3.5,755,713,5.6,298.44,5.5,Edmundston,313,299,45,saint-jacques,,DEFERRED,parish = administrative geography; name-clash/cannibalization with its municipality; covered by nearby municipal pages,,StatCan 2021 Census 98-10-0002; NRCan CGN; StatCan GAF 92-151-X,Geographic_Verified
NB-0231,Woodstock 23,Indian Reserve,Carleton,Capital & River Valley,New Brunswick,46.10661,-67.58487,GAF-DA-avg,,435,327,33,182,173,4.9,1.8,242.2,Weak MIZ,216,150,44.8,woodstock-23,,DEFERRED,First Nations reserve — not an appropriate third-party service-landing-page target; excluded from build,,StatCan 2021 Census 98-10-0002; NRCan CGN; StatCan GAF 92-151-X,Geographic_Verified
NB-0232,Simonds,Parish,Carleton,Capital & River Valley,New Brunswick,46.33336,-67.55324,CGN:DAHNF,,514,473,8.7,220,217,1.4,75.57,6.8,Weak MIZ,215,165,44.7,simonds-carleton,,DEFERRED,parish = administrative geography; name-clash/cannibalization with its municipality; covered by nearby municipal pages,,StatCan 2021 Census 98-10-0002; NRCan CGN; StatCan GAF 92-151-X,Geographic_Verified
NB-0233,Sainte-Anne-de-Madawaska,Village,Madawaska,Northwest & Madawaska,New Brunswick,47.24518,-68.02586,CGN:DAXMA,,891,957,-6.9,436,415,4.8,8.97,99.4,Strong MIZ,279,266,44.7,sainte-anne-de-madawaska,,DEFERRED,unified score 44.7 < 50 publish threshold (pop 891),,StatCan 2021 Census 98-10-0002; NRCan CGN; StatCan GAF 92-151-X,Geographic_Verified
NB-0234,Andover,Parish,Victoria,Northwest & Madawaska,New Brunswick,46.71326,-67.74716,GAF-DA-avg,,879,891,-1.3,387,364,5.9,123.42,7.1,No MIZ,238,206,44.5,andover,,DEFERRED,parish = administrative geography; name-clash/cannibalization with its municipality; covered by nearby municipal pages,,StatCan 2021 Census 98-10-0002; NRCan CGN; StatCan GAF 92-151-X,Geographic_Verified
NB-0235,Aroostook,Village,Victoria,Northwest & Madawaska,New Brunswick,46.80593,-67.72393,CGN:DADWA,,313,306,2.3,163,148,9.2,2.23,140.2,Weak MIZ,239,213,44.2,aroostook,,DEFERRED,unified score 44.2 < 50 publish threshold (pop 313),,StatCan 2021 Census 98-10-0002; NRCan CGN; StatCan GAF 92-151-X,Geographic_Verified
NB-0236,Durham,Parish,Restigouche,Restigouche & Chaleur Bay,New Brunswick,47.90354,-66.10972,GAF-DA-avg,,950,1076,-11.7,563,499,11.4,409.78,2.3,Moderate MIZ,226,292,44.1,durham,,DEFERRED,parish = administrative geography; name-clash/cannibalization with its municipality; covered by nearby municipal pages,,StatCan 2021 Census 98-10-0002; NRCan CGN; StatCan GAF 92-151-X,Geographic_Verified
NB-0237,North Lake,Parish,York,Capital & River Valley,New Brunswick,45.83330,-67.73330,CGN:DACAN,,282,233,21,383,160,58.2,439.6,0.6,Moderate MIZ,230,144,44.1,north-lake,,DEFERRED,parish = administrative geography; name-clash/cannibalization with its municipality; covered by nearby municipal pages,,StatCan 2021 Census 98-10-0002; NRCan CGN; StatCan GAF 92-151-X,Geographic_Verified
NB-0238,Rivière-Verte,Village,Madawaska,Northwest & Madawaska,New Brunswick,47.32047,-68.14673,CGN:DACHB,,744,724,2.8,373,359,3.8,6.91,107.7,Edmundston,291,278,44,riviere-verte,,DEFERRED,unified score 44 < 50 publish threshold (pop 744),,StatCan 2021 Census 98-10-0002; NRCan CGN; StatCan GAF 92-151-X,Geographic_Verified
NB-0239,Meductic,Village,York,Capital & River Valley,New Brunswick,45.98806,-67.50917,CGN:DAOWC,,180,215,-16.3,93,83,10.8,6.26,28.7,No MIZ,211,138,43.4,meductic,,DEFERRED,unified score 43.4 < 50 publish threshold (pop 180),,StatCan 2021 Census 98-10-0002; NRCan CGN; StatCan GAF 92-151-X,Geographic_Verified
NB-0240,Buctouche 16,Indian Reserve,Kent,Greater Moncton & Southeast,New Brunswick,46.45126,-64.75893,GAF-DA-avg,,101,96,5.2,44,44,0,0.38,266.6,No MIZ,40,165,43.1,buctouche-16,,DEFERRED,First Nations reserve — not an appropriate third-party service-landing-page target; excluded from build,,StatCan 2021 Census 98-10-0002; NRCan CGN; StatCan GAF 92-151-X,Geographic_Verified
NB-0241,Lac Baker,Village,Madawaska,Northwest & Madawaska,New Brunswick,47.33494,-68.64271,CGN:DBDJI,,685,690,-0.7,459,336,26.8,37.24,18.4,Strong MIZ,326,303,43.1,lac-baker,,DEFERRED,unified score 43.1 < 50 publish threshold (pop 685),,StatCan 2021 Census 98-10-0002; NRCan CGN; StatCan GAF 92-151-X,Geographic_Verified
NB-0242,Saint-Léonard,Parish,Madawaska,Northwest & Madawaska,New Brunswick,47.16250,-67.92500,CGN:DBDVO,,858,975,-12,380,362,4.7,344.85,2.5,Moderate MIZ,268,254,43,saint-leonard-madawaska,,DEFERRED,parish = administrative geography; name-clash/cannibalization with its municipality; covered by nearby municipal pages,,StatCan 2021 Census 98-10-0002; NRCan CGN; StatCan GAF 92-151-X,Geographic_Verified
NB-0243,Indian Island 28,Indian Reserve,Kent,Greater Moncton & Southeast,New Brunswick,46.68936,-64.79191,GAF-DA-avg,,116,153,-24.2,46,45,2.2,0.4,288.8,No MIZ,67,186,42.6,indian-island-28,,DEFERRED,First Nations reserve — not an appropriate third-party service-landing-page target; excluded from build,,StatCan 2021 Census 98-10-0002; NRCan CGN; StatCan GAF 92-151-X,Geographic_Verified
NB-0244,Addington,Parish,Restigouche,Restigouche & Chaleur Bay,New Brunswick,47.93530,-66.78629,GAF-DA-avg,,698,656,6.4,354,326,7.9,933,0.7,Campbellton (New Brunswick part,256,301,42.6,addington,,DEFERRED,parish = administrative geography; name-clash/cannibalization with its municipality; covered by nearby municipal pages,,StatCan 2021 Census 98-10-0002; NRCan CGN; StatCan GAF 92-151-X,Geographic_Verified
NB-0245,Clarendon,Parish,Charlotte,Fundy & Greater Saint John,New Brunswick,45.48042,-66.41946,CGN:DAGBV,,66,63,4.8,64,40,37.5,492.11,0.1,No MIZ,144,36,42.4,clarendon,,DEFERRED,parish = administrative geography; name-clash/cannibalization with its municipality; covered by nearby municipal pages,,StatCan 2021 Census 98-10-0002; NRCan CGN; StatCan GAF 92-151-X,Geographic_Verified
NB-0246,Eldon,Parish,Restigouche,Restigouche & Chaleur Bay,New Brunswick,47.81578,-67.08347,GAF-DA-avg,,674,672,0.3,369,335,9.2,1688.58,0.4,Moderate MIZ,260,293,42.4,eldon,,DEFERRED,parish = administrative geography; name-clash/cannibalization with its municipality; covered by nearby municipal pages,,StatCan 2021 Census 98-10-0002; NRCan CGN; StatCan GAF 92-151-X,Geographic_Verified
NB-0247,Grand Manan,Parish,Charlotte,Fundy & Greater Saint John,New Brunswick,44.69806,-66.82222,CGN:DBEDY,,139,145,-4.1,106,68,35.8,5.96,23.3,No MIZ,222,87,42.3,grand-manan-charlotte,,DEFERRED,parish = administrative geography; name-clash/cannibalization with its municipality; covered by nearby municipal pages,,StatCan 2021 Census 98-10-0002; NRCan CGN; StatCan GAF 92-151-X,Geographic_Verified
NB-0248,Lorne,Parish,Victoria,Northwest & Madawaska,New Brunswick,47.87361,-66.12673,CGN:DAOHR,,313,464,-32.5,337,172,49,1632.21,0.2,Weak MIZ,223,289,41.9,lorne,,DEFERRED,parish = administrative geography; name-clash/cannibalization with its municipality; covered by nearby municipal pages,,StatCan 2021 Census 98-10-0002; NRCan CGN; StatCan GAF 92-151-X,Geographic_Verified
NB-0249,Rivière-Verte,Parish,Madawaska,Northwest & Madawaska,New Brunswick,47.32047,-68.14673,CGN:DACHB,,657,711,-7.6,324,309,4.6,715.72,0.9,Edmundston,291,278,41.8,riviere-verte-madawaska,,DEFERRED,parish = administrative geography; name-clash/cannibalization with its municipality; covered by nearby municipal pages,,StatCan 2021 Census 98-10-0002; NRCan CGN; StatCan GAF 92-151-X,Geographic_Verified
NB-0250,Saint-Basile,Parish,Madawaska,Northwest & Madawaska,New Brunswick,47.35548,-68.22366,CGN:DAEBU,,736,592,24.3,342,324,5.3,129.96,5.7,Edmundston,298,285,41.8,saint-basile,,DEFERRED,parish = administrative geography; name-clash/cannibalization with its municipality; covered by nearby municipal pages,,StatCan 2021 Census 98-10-0002; NRCan CGN; StatCan GAF 92-151-X,Geographic_Verified
NB-0251,Eel River 3,Indian Reserve,Restigouche,Restigouche & Chaleur Bay,New Brunswick,48.03238,-66.37939,GAF-DA-avg,,342,329,4,157,149,5.1,1.45,235.9,Moderate MIZ,248,308,41.4,eel-river-3,,DEFERRED,First Nations reserve — not an appropriate third-party service-landing-page target; excluded from build,,StatCan 2021 Census 98-10-0002; NRCan CGN; StatCan GAF 92-151-X,Geographic_Verified
NB-0252,Colborne,Parish,Restigouche,Restigouche & Chaleur Bay,New Brunswick,47.94704,-66.20741,GAF-DA-avg,,266,227,17.2,162,135,16.7,753.38,0.4,Moderate MIZ,233,298,41.3,colborne,,DEFERRED,parish = administrative geography; name-clash/cannibalization with its municipality; covered by nearby municipal pages,,StatCan 2021 Census 98-10-0002; NRCan CGN; StatCan GAF 92-151-X,Geographic_Verified
NB-0253,Fort Folly 1,Indian Reserve,Westmorland,Greater Moncton & Southeast,New Brunswick,45.89023,-64.49830,GAF-DA-avg,,36,40,-10,22,21,4.5,0.55,65.2,Moncton,31,140,41.3,fort-folly-1,,DEFERRED,First Nations reserve — not an appropriate third-party service-landing-page target; excluded from build,,StatCan 2021 Census 98-10-0002; NRCan CGN; StatCan GAF 92-151-X,Geographic_Verified
NB-0254,Balmoral,Parish,Restigouche,Restigouche & Chaleur Bay,New Brunswick,47.96250,-66.47000,CGN:DBAAC,,309,278,11.2,131,121,7.6,1088.01,0.3,Strong MIZ,245,301,41.2,balmoral-restigouche,,DEFERRED,parish = administrative geography; name-clash/cannibalization with its municipality; covered by nearby municipal pages,,StatCan 2021 Census 98-10-0002; NRCan CGN; StatCan GAF 92-151-X,Geographic_Verified
NB-0255,Notre-Dame-de-Lourdes,Parish,Madawaska,Northwest & Madawaska,New Brunswick,47.24349,-67.94059,CGN:DAYFN,,253,275,-8,117,110,6,186.3,1.4,Moderate MIZ,273,262,40.3,notre-dame-de-lourdes,,DEFERRED,parish = administrative geography; name-clash/cannibalization with its municipality; covered by nearby municipal pages,,StatCan 2021 Census 98-10-0002; NRCan CGN; StatCan GAF 92-151-X,Geographic_Verified
NB-0256,St. Basile 10,Indian Reserve,Madawaska,Northwest & Madawaska,New Brunswick,47.36307,-68.30303,GAF-DA-avg,,369,214,72.4,184,180,2.2,3.07,120.4,Edmundston,304,289,40.3,st-basile-10,,DEFERRED,First Nations reserve — not an appropriate third-party service-landing-page target; excluded from build,,StatCan 2021 Census 98-10-0002; NRCan CGN; StatCan GAF 92-151-X,Geographic_Verified
NB-0257,McAdam,Parish,York,Capital & River Valley,New Brunswick,45.59222,-67.30806,CGN:DBAQZ,,61,73,-16.4,45,32,28.9,534.77,0.1,No MIZ,204,103,40.2,mcadam-york,,DEFERRED,parish = administrative geography; name-clash/cannibalization with its municipality; covered by nearby municipal pages,,StatCan 2021 Census 98-10-0002; NRCan CGN; StatCan GAF 92-151-X,Geographic_Verified
NB-0258,Pabineau 11,Indian Reserve,Gloucester,Acadian Peninsula & Chaleur,New Brunswick,47.53350,-65.67415,GAF-DA-avg,,133,134,-0.7,64,58,9.4,4.92,27,Bathurst,175,253,39.6,pabineau-11,,DEFERRED,First Nations reserve — not an appropriate third-party service-landing-page target; excluded from build,,StatCan 2021 Census 98-10-0002; NRCan CGN; StatCan GAF 92-151-X,Geographic_Verified
